X,Y,OBJECTID,stop_id,stop_code,stop_name,stop_desc,stop_lat,stop_lon,zone_id,stop_url,location_type,parent_station,stop_timezone,wheelchair_boarding
-8874219.26457987,5415016.24685187,1,00000020,1001,Kennedy Rd S n/of First Gulf Blvd,,43.673256,-79.718468,,,0,,,1
-8874580.16236902,5415309.13695316,2,00000030,1002,Kennedy Rd s/of Steeles Ave,,43.675159,-79.721710,,,0,,,1
-8874183.53102333,5416267.44346556,3,00000055,1005,Rutherford Rd S n/of Steeles Ave E,,43.681385,-79.718147,,,0,,,1
-8874276.14883966,5416357.33790249,4,00000060,1006,Rutherford Rd S/of Bramsteele Rd,,43.681969,-79.718979,,,0,,,1
-8874552.10985734,5416640.26480367,5,00000070,1008,Rutherford Rd S n/of Bramsteele Rd,,43.683807,-79.721458,,,0,,,1
-8874953.86189962,5417029.111021,6,00000080,1009,Rutherford Rd S at Glidden Rd,,43.686333,-79.725067,,,0,,,1
-8875387.00603829,5417441.83546936,7,00000090,1010,Rutherford Rd S at Selby Rd,,43.689014,-79.728958,,,0,,,1
-8875572.13035148,5417629.80747357,8,00000100,1011,Rutherford Rd S opp Stafford Rd,,43.690235,-79.730621,,,0,,,1
-8875712.28159039,5417818.39912025,9,00000110,1012,Rutherford Rd S at Clarence St,,43.691460,-79.731880,,,0,,,1
-8875810.02010331,5418380.96394354,10,00000120,1013,Orenda Rd e/of Rutherford Rd S,,43.695114,-79.732758,,,0,,,1
-8875480.40309107,5418471.4948181,11,00000130,1014,Orenda Rd btwn Rutherford Rd S & Heart Lake Rd,,43.695702,-79.729797,,,0,,,1
-8875261.32633319,5418634.08310728,12,00000140,1015,Orenda Rd opp Heart Lake Rd,,43.696758,-79.727829,,,0,,,1
-8874949.63175896,5418721.07517645,13,00000150,1016,Orenda Rd opp Tilbury Crt,,43.697323,-79.725029,,,0,,,1
-8874687.25171917,5418681.6591993,14,00000160,1017,Orenda Rd at 237 Orenda Rd,,43.697067,-79.722672,,,0,,,1
-8874418.86042686,5418837.32249532,15,00000170,1018,Orenda Rd at Titan Rd,,43.698078,-79.720261,,,0,,,1
-8874208.24395028,5419114.01239937,16,00000180,1019,West Dr n/of Orenda Rd,,43.699875,-79.718369,,,0,,,1
-8874738.12472646,5419552.69914368,17,00000190,1020,West Dr s/of Clark Blvd ( 55 West Dr ),,43.702724,-79.723129,,,0,,,1
-8875161.91802791,5419856.97428936,18,00000200,1021,Clark Blvd e/of West Dr,,43.704700,-79.726936,,,0,,,1
-8874949.63175896,5420124.3012161,19,00000210,1022,Clark Blvd at 185 Clark Blvd,,43.706436,-79.725029,,,0,,,1
-8874843.43296475,5420554.41199586,20,00000220,1023,Clark Blvd at Terese Rd,,43.709229,-79.724075,,,0,,,1
-8872609.80738198,5424704.55543671,21,00000222,1024,Queen St E bwtn Torbram Rd & Gateway Blvd,,43.736172,-79.704010,,,0,,,1
-8874558.12110985,5420896.75939015,22,00000230,1025,Clark Blvd at Braemar Dr,,43.711452,-79.721512,,,0,,,1
-8874395.03805583,5421168.89073625,23,00000235,3615,Clark Blvd at Briar Path,,43.713219,-79.720047,,,0,,,1
-8874837.53303173,5420634.18411816,24,00000270,1028,Clark Blvd at Lisa St,,43.709747,-79.724022,,,0,,,1
-8875060.83993027,5420033.90812284,25,00000280,1029,Clark Blvd opp 185 Clark Blvd,,43.705849,-79.726028,,,0,,,1
-8875192.53088787,5419868.21541549,26,00000290,1030,Clark Blvd at West Dr,,43.704773,-79.727211,,,0,,,1
-8875155.12753897,5419733.16881949,27,00000300,1031,West Dr s/of Clark Blvd,,43.703896,-79.726875,,,0,,,1
-8874889.29659495,5419632.61659388,28,00000308,3667,West Dr at 60 West Dr,,43.703243,-79.724487,,,0,,,1
-8874555.56076156,5419367.76758135,29,00000310,1032,West Dr at Norpak Whse,,43.701523,-79.721489,,,0,,,1
-8874150.46913456,5418998.83941178,30,00000320,1033,West Dr s/of Orenda Rd,,43.699127,-79.717850,,,0,,,1
-8873694.39318078,5418337.54639008,31,00000330,1034,Glidden Rd w/of West Dr,,43.694832,-79.713753,,,0,,,1
-8873882.85707869,5418151.86936934,32,00000340,1035,Glidden Rd at Blair Dr,,43.693626,-79.715446,,,0,,,1
-8874197.1120012,5417847.18855132,33,00000350,1036,Glidden Rd at Heart Lake Rd,,43.691647,-79.718269,,,0,,,1
-8874489.32566454,5417558.83643102,34,00000360,1037,Glidden Rd w/of Heart Lake Rd,,43.689774,-79.720894,,,0,,,1
-8874721.20416385,5417179.97421548,35,00000365,4223,Hale Rd s/of Glidden Rd,,43.687313,-79.722977,,,0,,,1
-8874688.92151153,5417362.55276564,36,00000370,1038,Glidden Rd at Hale Rd,,43.688499,-79.722687,,,0,,,1
-8874527.50824988,5416982.15920319,37,00000371,3760,Hale Rd btwn Glidden Rd & Bramsteele Ave,,43.686028,-79.721237,,,0,,,1
-8874186.98192754,5416699.68363293,38,00000372,3761,Hale Rd n/of Bramsteele Ave,,43.684193,-79.718178,,,0,,,0
-8874221.82492816,5416552.21480636,39,00000373,3762,Bramsteele Ave e/of Rutherford Rd,,43.683235,-79.718491,,,0,,,1
-8874166.61046073,5416198.1760888,40,00000410,1043,Rutherford Rd S at Steeles Ave E,,43.680935,-79.717995,,,0,,,1
-8873930.50182075,5415967.44250813,41,00000420,1044,First Gulf Blvd n/of Biscayne Cres (N),,43.679436,-79.715874,,,0,,,0
-8873655.32003951,5415611.57920113,42,00000430,1045,First Gulf Blvd at Biscayne Cres S,,43.677124,-79.713402,,,0,,,0
-8873931.28105719,5415205.24686322,43,00000440,1046,First Gulf Blvd btwn Biscayne Cres (S) and Kennedy,,43.674484,-79.715881,,,0,,,1
-8881171.61205787,5407164.62073406,44,00000460,1047,Hereford St s/of Steeles Ave,,43.622219,-79.780922,,,0,,,1
-8881733.88680587,5406504.17420075,45,00000461,3695,Heritage - Zum Steeles Station Stop EB,,43.617924,-79.785973,,,0,,,1
-8881889.28881502,5406390.38840989,46,00000466,3692,Heritage - Zum Steeles Station Stop WB,,43.617184,-79.787369,,,0,,,1
-8882954.28238343,5404793.22970648,47,00000468,3693,Winston Churchill - Zum Steeles Station Stop WB,,43.606796,-79.796936,,,0,,,1
-8882954.28238343,5404993.24380968,48,00000469,3694,Winston Churchill - Zum Steeles Station Stop EB,,43.608097,-79.796936,,,0,,,1
-8880532.97213919,5408025.80931819,49,00000470,1048,Mississauga Road - Zum Steeles Station Stop EB,,43.627819,-79.775185,,,0,,,1
-8881732.10569401,5403139.01294846,50,00000475,6196,Argentia - Zum Steeles Stop WB,,43.596035,-79.785957,,,0,,,1
-8881770.39959885,5402984.8435206,51,00000477,3712,Argentia - Zum Steeles Stop EB,,43.595032,-79.786301,,,0,,,1
-8879067.00576494,5409860.56231847,52,00000510,1052,Steeles Ave W at Churchville Rd,,43.639748,-79.762016,,,0,,,0
-8878582.09806304,5410466.02306189,53,00000520,1053,Steeles Ave W at Clementine Dr,,43.643684,-79.757660,,,0,,,0
-8877857.63081695,5411372.75009547,54,00000530,1054,Steeles Ave W btwn Mavis Rd & Windmill Blvd,,43.649578,-79.751152,,,0,,,1
-8878379.05131184,5410712.00282,55,00000535,3897,Steeles Ave btwn Clementine Dr and Mavis Rd,,43.645283,-79.755836,,,0,,,1
-8878122.57120504,5411028.29410739,56,00000540,1055,Mavis - Zum Steeles Station Stop EB,,43.647339,-79.753532,,,0,,,1
-8877398.21527845,5411940.3074202,57,00000550,1056,Steeles Ave W at Windmill Blvd,,43.653267,-79.747025,,,0,,,1
-8877047.44756296,5412361.72859382,58,00000560,1057,Steeles Ave W at McLaughlin Rd S,,43.656006,-79.743874,,,0,,,1
-8875757.36598416,5413979.43204055,59,00000600,1059,Steeles Ave E e/of Hurontario St,,43.666519,-79.732285,,,0,,,1
-8875287.59773301,5414585.31666238,60,00000610,1060,Steeles Ave E btwn Hurontario St & Hartford Tr,,43.670456,-79.728065,,,0,,,1
-8874981.91441129,5414976.8466852,61,00000620,1061,Steeles Ave E at Hartford Trail,,43.673000,-79.725319,,,0,,,1
-8872618.26766328,5417956.34287812,62,00000670,1064,Steeles Ave E btwn Tomken Rd & Dixie Rd,,43.692356,-79.704086,,,0,,,1
-8872379.59867502,5418250.55793452,63,00000680,1065,Steeles Ave w/of Dixie Rd,,43.694267,-79.701942,,,0,,,1
-8871772.35085274,5418935.40249752,64,00000700,1067,Steeles Ave E at Advance Blvd,,43.698715,-79.696487,,,0,,,1
-8871400.432434,5419463.54349835,65,00000710,1068,Steeles Ave at Bramalea GO Station,,43.702145,-79.693146,,,0,,,1
-8870416.92473285,5420684.23454687,66,00000730,1070,Steeles Ave E at Melanie Dr (W),,43.710072,-79.684311,,,0,,,1
-8870172.35581157,5420983.77278499,67,00000740,1071,Steeles Ave E at Melanie Dr (E),,43.712017,-79.682114,,,0,,,1
-8868937.4887002,5422489.61946802,68,00000760,1073,Steeles Ave E opp Pearson Convention Centre,,43.721794,-79.671021,,,0,,,1
-8868341.26150751,5423208.36013957,69,00000780,1075,Steeles Ave E opp Parkhurst Sq,,43.726460,-79.665665,,,0,,,1
-8867766.29633757,5423893.41862717,70,00000790,1076,Steeles Ave E at 3389 Steeles Ave E (Bombay Whse),,43.730907,-79.660500,,,0,,,1
-8867534.41783824,5424173.80353359,71,00000800,1077,Steeles Ave E at Goreway Dr,,43.732727,-79.658417,,,0,,,1
-8867403.61743656,5424101.54968506,72,00000810,1078,Goreway Dr s/of Steeles Ave E,,43.732258,-79.657242,,,0,,,0
-8867144.57698148,5423845.81566223,73,00000820,1081,Goreway Dr at Kenview Blvd,,43.730598,-79.654915,,,0,,,1
-8866995.07490535,5423881.09421138,74,00000830,1082,Kenview Blvd e/of Goreway Dr,,43.730827,-79.653572,,,0,,,0
-8866828.65226661,5424096.77386427,75,00000840,1083,Kenview Blvd at 5 Kenview Blvd,,43.732227,-79.652077,,,0,,,0
-8866744.49473157,5424458.81890212,76,00000850,1084,Kenview Blvd at 11 Kenview Blvd,,43.734577,-79.651321,,,0,,,0
-8866663.89942024,5424816.71823746,77,00000900,1085,Kenview Blvd e/of Castleview Dr (19 Kenview Blvd),,43.736900,-79.650597,,,0,,,0
-8866075.24195292,5425052.44944739,78,00000910,1086,Kenview Blvd at Parkshore Dr,,43.738430,-79.645309,,,0,,,1
-8865938.54161823,5425373.39253577,79,00000920,1087,Finch Ave n/of Kenview Blvd,,43.740513,-79.644081,,,0,,,0
-8866261.25682204,5425702.51331881,80,00000930,1088,Finch Ave s/of Steeles Ave,,43.742649,-79.646980,,,0,,,1
-8865357.67651527,5426727.70119958,81,00000940,1090,Albion Rd s/of Steeles Ave,,43.749302,-79.638863,,,0,,,1
-8865432.37189359,5426760.06281046,82,00000941,3724,Steeles Ave w/of Hwy 50,,43.749512,-79.639534,,,0,,,1
-8864924.53237659,5427005.7065493,83,00000942,8075,Steeles Ave w/of Alcide St,,43.751106,-79.634972,,,0,,,0
-8863850.07665146,5427276.78524464,84,00000943,8076,Steeles Ave w/of Signal Hill Ave,,43.752865,-79.625320,,,0,,,0
-8863714.26687269,5426952.84790251,85,00000944,8077,Signal Hill Ave n/of Steinway Blvd,,43.750763,-79.624100,,,0,,,0
-8864195.83498986,5426638.93850683,86,00000945,8078,Steinway Blvd n/of Albion Rd,,43.748726,-79.628426,,,0,,,0
-8863873.89902249,5426873.48344779,87,00000946,8086,Steinway Blvd w/of Signal Hill Ave,,43.750248,-79.625534,,,0,,,0
-8865005.12768793,5426434.29444236,88,00000950,8000,Albion Rd w/of Claireport Cres (W),,43.747398,-79.635696,,,0,,,0
-8864671.39185453,5426462.03207667,89,00000960,8001,Albion Rd w/of Claireport Cres (E),,43.747578,-79.632698,,,0,,,0
-8864275.65106476,5426527.8322428,90,00000970,8002,Albion Rd at Steinway Blvd,,43.748005,-79.629143,,,0,,,0
-8863495.96935124,5426222.72067637,91,00000980,8003,Humberline Dr n/of Claireville Dr (N),,43.746025,-79.622139,,,0,,,1
-8864738.51750748,5424274.25118849,92,00001090,6000,Longo Circle - Zum Steeles Stop,,43.733379,-79.633301,,,0,,,1
-8865161.420253,5424654.02099405,93,00001100,6001,Finch Ave n/of Longo Circle,,43.735844,-79.637100,,,0,,,1
-8865962.36398926,5425225.32282968,94,00001110,1099,Kenview Blvd w/of Finch Ave,,43.739552,-79.644295,,,0,,,1
-8866101.62467224,5425062.46430538,95,00001115,3670,Kenview Blvd w/of Parkshore Dr,,43.738495,-79.645546,,,0,,,1
-8866473.65441047,5425005.45679739,96,00001120,1100,Kenview Blvd at 26 Kenview Blvd,,43.738125,-79.648888,,,0,,,1
-8866733.47410198,5424614.57967016,97,00001130,1101,Kenview Blvd at 14 Kenview Blvd,,43.735588,-79.651222,,,0,,,1
-8866778.55849576,5424413.52397944,98,00001140,1102,Kenview Blvd at Paget Rd,,43.734283,-79.651627,,,0,,,1
-8867060.53076593,5423852.28595372,99,00001150,1103,Kenview Blvd at Goreway Dr,,43.730640,-79.654160,,,0,,,1
-8867217.60256744,5423976.91697764,100,00001160,1104,Goreway Dr btwn Kenview Blvd and Steeles Ave E,,43.731449,-79.655571,,,0,,,1
-8867423.09834745,5424194.44759425,101,00001170,1105,Goreway Dr at Steeles Ave E,,43.732861,-79.657417,,,0,,,1
-8868313.20899583,5423318.81025019,102,00001180,1106,Steeles Ave E at Parkhurst Sq,,43.727177,-79.665413,,,0,,,1
-8870265.75286434,5420942.65307847,103,00001230,1111,Steeles Ave E w/of Melanie Dr (E),,43.711750,-79.682953,,,0,,,1
-8870485.72017815,5420674.22443943,104,00001235,1112,Steeles Ave E w/of Melanie Dr (W),,43.710007,-79.684929,,,0,,,1
-8870748.10021796,5420355.1387025,105,00001237,3665,Steeles Ave w/of Melanie Dr,,43.707935,-79.687286,,,0,,,1
-8871374.04971469,5419581.49398338,106,00001250,1114,Steeles Ave E at Bramalea GO Station,,43.702911,-79.692909,,,0,,,1
-8871921.85292888,5418856.72285264,107,00001260,1115,Steeles Ave w/of Advance Blvd,,43.698204,-79.697830,,,0,,,1
-8872623.38835986,5418018.54140734,108,00001280,1117,Steeles Ave E btwn Dixie Rd & West Dr,,43.692760,-79.704132,,,0,,,1
-8873130.44864042,5417379.02503835,109,00001300,1119,Steeles Ave btwn Hwy 410 and West Drive,,43.688606,-79.708687,,,0,,,0
-8874388.24756689,5415808.90309552,110,00001315,1121,Steeles Ave E e/of Resolution Dr,,43.678406,-79.719986,,,0,,,1
-8874665.98969642,5415457.81724811,111,00001320,1122,Steeles Ave e/of Kennedy Rd,,43.676125,-79.722481,,,0,,,1
-8874974.23336643,5415057.9558052,112,00001340,1124,Steeles Ave E at Orchard Dr,,43.673527,-79.725250,,,0,,,1
-8883434.95994468,5417499.41207312,113,00001345,1125,Fletchers Creek Blvd at Gold Hill Rd,,43.689388,-79.801254,,,0,,,1
-8875291.04863722,5414656.4187587,114,00001350,1126,Steeles Ave E at 152 Steeles Ave,,43.670918,-79.728096,,,0,,,1
-8875766.60550189,5414063.45633799,115,00001360,1127,Steeles Ave e/of Main St,,43.667065,-79.732368,,,0,,,1
-8877376.06269978,5412039.54506822,116,00001430,1130,Steeles Ave W at Tait Blvd,,43.653912,-79.746826,,,0,,,1
-8877972.28989247,5411300.59634882,117,00001440,1131,Steeles Ave W at Beaconsfield walkway,,43.649109,-79.752182,,,0,,,1
-8878191.36665036,5411031.21708319,118,00001450,1132,Steeles Ave W at Chinguacousy Rd,,43.647358,-79.754150,,,0,,,1
-8878596.56959684,5410508.94213538,119,00001460,1133,Steeles Ave W w/of James Potter Dr,,43.643963,-79.757790,,,0,,,1
-8878841.13851812,5410219.58836885,120,00001465,1134,Steeles Ave W at Polonia Ave,,43.642082,-79.759987,,,0,,,1
-8879039.06457275,5409954.39383029,121,00001470,1135,Steeles Ave at Churchville Rd,,43.640358,-79.761765,,,0,,,1
-8879863.71936054,5408937.52637233,122,00001490,1137,Steeles Ave W e/of Financial Dr,,43.633747,-79.769173,,,0,,,1
-8880105.72793352,5408632.99549199,123,00001500,1138,Financial - Zum Steeles Station Stop WB,,43.631767,-79.771347,,,0,,,1
-8880721.4360371,5407873.86521795,124,00001508,3690,Mississauga Road - Zum Steeles Station Stop WB,,43.626831,-79.776878,,,0,,,1
-8880572.04528046,5407867.40611113,125,00001510,1139,Mississauga Rd s/of Steeles Ave,,43.626789,-79.775536,,,0,,,1
-8880072.55472527,5407351.76864475,126,00001520,1140,Mississauga Rd n/of Edgeware Rd,,43.623436,-79.771049,,,0,,,1
-8879797.48426352,5406907.66375161,127,00001530,1141,Hereford St w/of Mississauga Rd,,43.620548,-79.768578,,,0,,,1
-8879673.47435078,5406595.05007466,128,00001540,1142,Hereford St s/of Ironbridge Rd,,43.618515,-79.767464,,,0,,,1
-8879760.08091462,5406380.39377895,129,00001550,1143,Hereford St w/of President's Choice Cir (Loblaws),,43.617119,-79.768242,,,0,,,1
-8880152.48211966,5406140.52587743,130,00001560,1144,Hereford St btwn President's Choice Cir & Edgeware,,43.615559,-79.771767,,,0,,,1
-8880682.36289584,5406672.54898752,131,00001570,1145,Hereford St n/of Edgeware Rd,,43.619019,-79.776527,,,0,,,1
-8880907.45090622,5406901.82040837,132,00001575,3622,Hereford St btwn Edgeware Rd & Steeles Ave,,43.620510,-79.778549,,,0,,,0
-8874372.10624073,5422247.0224695,133,00001640,1148,Kensington Rd e/of Central Park Dr,,43.720219,-79.719841,,,0,,,1
-8874254.88681692,5422392.11781259,134,00001650,1149,Kensington Rd at Kingscross Rd,,43.721161,-79.718788,,,0,,,1
-8874086.79438583,5422527.2033196,135,00001660,1150,Kensington Rd opp Bramalea Medical Centre,,43.722038,-79.717278,,,0,,,1
-8873937.29230969,5422648.27365273,136,00001670,1151,Kensington Rd at Bramalea Rd,,43.722824,-79.715935,,,0,,,1
-8873728.34562547,5422489.00334058,137,00001680,1152,Bramalea Rd at Knightsbridge Rd - Rte 12 ONLY,,43.721790,-79.714058,,,0,,,1
-8873183.10275956,5423178.32163524,138,00001720,1153,Finchgate Blvd at Feston Place,,43.726265,-79.709160,,,0,,,1
-8873527.07998612,5423375.19115106,139,00001730,1154,Finchgate Blvd at Queen St E,,43.727543,-79.712250,,,0,,,1
-8873781.89030054,5423625.52034954,140,00001740,1155,Glenvale Blvd s/of Gatwick Lane,,43.729168,-79.714539,,,0,,,1
-8873909.23979801,5423844.73728076,141,00001750,1156,Glenvale Blvd n/of Greenmount Rd,,43.730591,-79.715683,,,0,,,1
-8874013.65748038,5424207.85085239,142,00001760,1157,Glenvale Blvd at Geraldine Crt,,43.732948,-79.716621,,,0,,,1
-8874200.56290541,5424365.918331,143,00001770,1158,Central Park Dr btwn Glenvale Blvd and Graham Crt,,43.733974,-79.718300,,,0,,,1
-8874490.99545689,5424254.37725588,144,00001780,1159,Grenoble Blvd n/of Central Park Dr,,43.733250,-79.720909,,,0,,,1
-8874563.24180642,5424475.92010423,145,00001790,1160,Grenoble Blvd at Glencastle Square,,43.734688,-79.721558,,,0,,,1
-8874561.46069457,5424704.55543671,146,00001800,1161,Grenoble Blvd at Gladstone Square,,43.736172,-79.721542,,,0,,,1
-8874701.61193348,5424897.29757477,147,00001810,1162,Grenoble Blvd at Greenbrair Rd,,43.737423,-79.722801,,,0,,,1
-8874938.61112938,5425063.69690403,148,00001815,1163,Grenoble Blvd at Williams Pky E,,43.738503,-79.724930,,,0,,,1
-8875380.21554935,5425614.99316301,149,00001840,1165,Jordan Blvd at Joshua Crt,,43.742081,-79.728897,,,0,,,1
-8875516.91588405,5425874.16617658,150,00001850,1166,Jordan Blvd at Jameson Cres,,43.743763,-79.730125,,,0,,,1
-8875679.99893806,5425980.02550075,151,00001860,1167,Jordan Blvd at North Park Dr,,43.744450,-79.731590,,,0,,,1
-8875492.31427658,5426278.50294622,152,00001870,1168,North Park Dr at Jayfield Rd,,43.746387,-79.729904,,,0,,,1
-8875234.16437743,5426571.2883476,153,00001880,1169,North Park Dr opp Panda Lane,,43.748287,-79.727585,,,0,,,1
-8875554.31923295,5427139.78086047,154,00001890,1170,Torbram Rd at Blue Diamond Dr,,43.751976,-79.730461,,,0,,,1
-8876017.18567567,5427622.46451929,155,00001910,1172,Torbram Rd n/of Bovaird Dr E,,43.755108,-79.734619,,,0,,,1
-8876211.66082609,5427812.95582705,156,00001920,1173,Torbram Rd s/of Peter Robertson Blvd,,43.756344,-79.736366,,,0,,,1
-8876594.71119391,5428200.42358919,157,00001930,1174,Torbram Rd n/of Peter Robertson Blvd,,43.758858,-79.739807,,,0,,,1
-8876835.04997453,5428449.65071729,158,00001935,1175,Torbram Rd btwn Peter Robertson Blvd & Steeplebush,,43.760475,-79.741966,,,0,,,1
-8876968.4107245,5428595.46018737,159,00001940,1176,Torbram Rd at Eagleridge Rd,,43.761421,-79.743164,,,0,,,1
-8877233.35111259,5428863.65698782,160,00001945,1177,Torbram Rd btwn Eagleridge Dr & Sandalwood Pky E,,43.763161,-79.745544,,,0,,,1
-8875479.62385463,5428548.44948272,161,00002005,1181,Mountainberry Rd at Mount Ranier Cres,,43.761116,-79.729790,,,0,,,0
-8875172.15942106,5428633.06892366,162,00002010,1182,Mountainberry Rd w/of Mount Rainer Cres (W),,43.761665,-79.727028,,,0,,,1
-8875030.33838979,5428900.65026212,163,00002020,1183,Mountainberry Rd e/of Mount Rainer Cres (E),,43.763401,-79.725754,,,0,,,1
-8875167.92928041,5429112.28547194,164,00002030,1184,Mountainberry Rd at Snow Leopard Crt (S),,43.764774,-79.726990,,,0,,,0
-8875346.26310466,5429341.03576418,165,00002040,1185,Mountainberry Rd n/of Black Hills Crt,,43.766258,-79.728592,,,0,,,1
-8875652.83698231,5429309.28167821,166,00002050,1186,Mountainberry Rd w/of Snow Leopard Crt (N),,43.766052,-79.731346,,,0,,,1
-8875826.9406659,5429130.0118753,167,00002060,1187,Mountainberry Rd at Cougar Crt,,43.764889,-79.732910,,,0,,,1
-8876015.51588331,5429036.44767882,168,00002070,1188,Mountainash Rd at Mountainberry Rd,,43.764282,-79.734604,,,0,,,1
-8875576.36049213,5428021.02121731,169,00002110,1192,Bovaird Dr E w/of Mountainash Rd,,43.757694,-79.730659,,,0,,,1
-8876056.25881694,5427604.27866168,170,00002120,1193,Torbram Rd at Bovaird Dr E,,43.754990,-79.734970,,,0,,,1
-8875858.33276231,5427401.46254406,171,00002125,1194,Torbram Rd s/of Bovaird Dr E,,43.753674,-79.733192,,,0,,,1
-8875624.00523419,5427160.89388938,172,00002130,1195,Torbram Rd at Prospect Gate,,43.752113,-79.731087,,,0,,,1
-8875224.81354021,5426751.12483039,173,00002140,1196,Torbram Rd at North Park Dr,,43.749454,-79.727501,,,0,,,1
-8875261.32633319,5426580.68845394,174,00002150,1197,North Park Dr at Panda Lane,,43.748348,-79.727829,,,0,,,1
-8875471.94280977,5426345.07228434,175,00002160,1198,North Park Dr at Provincial Place,,43.746819,-79.729721,,,0,,,1
-8875648.60684166,5426142.12976071,176,00002165,1199,North Park Dr btwn Provincial Pl & Jamieson Cres,,43.745502,-79.731308,,,0,,,1
-8875696.14026422,5425960.61016256,177,00002170,1200,Jordan Blvd at North Park Dr,,43.744324,-79.731735,,,0,,,1
-8875457.47127596,5425753.66985075,178,00002180,1201,Jordan Blvd at Joyce Gate,,43.742981,-79.729591,,,0,,,1
-8875231.60402915,5425322.85442928,179,00002190,1202,Jordan Blvd at Jefferson Rd,,43.740185,-79.727562,,,0,,,1
-8874749.14535604,5424901.91973784,180,00002210,1204,Grenoble Blvd at Glenforest Rd,,43.737453,-79.723228,,,0,,,1
-8874580.16236902,5424629.83234964,181,00002220,1205,Grenoble Blvd at Grasspoint Square,,43.735687,-79.721710,,,0,,,1
-8874551.33062091,5424314.30730679,182,00002230,1206,Grenoble Blvd n/of Central park Dr,,43.733639,-79.721451,,,0,,,1
-8874260.0075135,5424301.9823288,183,00002240,1207,Central Park Dr e/of Greenarrow Crt,,43.733559,-79.718834,,,0,,,1
-8874023.89887353,5424110.94727514,184,00002250,1208,Glenvale Blvd s/of Geraldine Crt,,43.732319,-79.716713,,,0,,,1
-8873918.59063524,5423811.15346365,185,00002260,1209,Glenvale Blvd at Goldcrest Rd,,43.730373,-79.715767,,,0,,,1
-8873819.18232996,5423640.15518972,186,00002270,1210,Glenvale Blvd at Gatwick Rd,,43.729263,-79.714874,,,0,,,0
-8873583.96424591,5423390.44178181,187,00002280,1211,Finchgate Blvd s/of Queen St E,,43.727642,-79.712761,,,0,,,1
-8873158.5011521,5423144.89428639,188,00002290,1212,Finchgate Blvd n/of Clark Blvd,,43.726048,-79.708939,,,0,,,1
-8874049.39103692,5422581.26888277,189,00002350,1214,Kensington Rd w/of Bramalea Rd,,43.722389,-79.716942,,,0,,,1
-8874210.69297908,5422481.45578279,190,00002360,1215,Kensington Rd at Kingscross Rd,,43.721741,-79.718391,,,0,,,1
-8874359.41581878,5422310.48214779,191,00002370,1216,Kensington Rd at Central Park Dr,,43.720631,-79.719727,,,0,,,1
-8874159.81997179,5421905.08705324,192,00002390,1218,Central Park Dr at Knightsbridge Rd,,43.717999,-79.717934,,,0,,,1
-8874162.38032007,5421837.47159512,193,00002410,3540,Knightsbridge Rd w/of Central Park Drive,,43.717560,-79.717957,,,0,,,1
-8871254.26994259,5419988.01895258,194,00002430,1220,Bramalea Rd n/of Steeles Ave E,,43.705551,-79.691833,,,0,,,1
-8871443.73571592,5420172.50096157,195,00002450,1222,Bramalea Rd at East Dr,,43.706749,-79.693535,,,0,,,1
-8871627.19023675,5420362.83851801,196,00002460,1223,Bramalea Rd n/of East Dr,,43.707985,-79.695183,,,0,,,1
-8871848.82734292,5420452.77283883,197,00002470,1224,Avondale Blvd at Autumn Blvd,,43.708569,-79.697174,,,0,,,1
-8872024.60081888,5420239.48824623,198,00002475,1225,Avondale Blvd at Avondale Plaza,,43.707184,-79.698753,,,0,,,1
-8872208.05533971,5420115.52365376,199,00002490,1226,Avondale Blvd at Aloma Cres (E),,43.706379,-79.700401,,,0,,,0
-8872352.43671927,5419832.95220269,200,00002500,1227,Avondale Blvd w/of Aloma Cres (W),,43.704544,-79.701698,,,0,,,0
-8872522.31026222,5419791.83762247,201,00002510,1228,Avondale Blvd w/of Athlone Ave (S),,43.704277,-79.703224,,,0,,,0
-8874621.79585858,5420687.6225857,202,00002540,1230,Dixie Rd s/of Clark Blvd,,43.710094,-79.722084,,,0,,,1
-8874330.47275117,5420390.40391021,203,00002550,1231,Dixie Rd at Terese Rd,,43.708164,-79.719467,,,0,,,1
-8873847.23484164,5420144.93622009,204,00002560,1232,Balmoral Dr e/of Dixie Rd,,43.706570,-79.715126,,,0,,,1
-8873741.03604742,5420340.50907072,205,00002570,1233,Balmoral Dr at Braemar Dr,,43.707840,-79.714172,,,0,,,1
-8873570.38326804,5420533.16007958,206,00002580,1234,Balmoral Dr at Brookland Dr,,43.709091,-79.712639,,,0,,,1
-8873341.95567293,5420654.82026205,207,00002590,1235,Avondale Blvd s/of Balmoral Dr,,43.709881,-79.710587,,,0,,,1
-8873175.4217147,5420221.31693476,208,00002600,1236,Avondale Blvd at Brentwood Dr,,43.707066,-79.709091,,,0,,,1
-8872832.33504407,5419835.87796631,209,00002610,1237,Avondale Blvd at Birchbank Rd,,43.704563,-79.706009,,,0,,,1
-8872599.56598883,5419750.72322538,210,00002620,1238,Avondale Blvd at 135 Avondale Blvd,,43.704010,-79.703918,,,0,,,0
-8872282.86203752,5419898.08915968,211,00002630,1239,Avondale Blvd opp Aloma Cres (W),,43.704967,-79.701073,,,0,,,0
-8872125.67891652,5420150.17197471,212,00002640,1240,Avondale Blvd at Victoria Park Arena,,43.706604,-79.699661,,,0,,,1
-8872828.10490343,5419858.82214476,213,00002650,1241,Avondale Blvd btwn Birchbank Rd & Athlone Ave,,43.704712,-79.705971,,,0,,,0
-8873078.57375771,5420139.08449786,214,00002660,1242,Avondale Blvd at Addington Cres,,43.706532,-79.708221,,,0,,,1
-8873356.31588724,5420697.63270769,215,00002670,1243,Avondale Blvd at Balmoral Dr,,43.710159,-79.710716,,,0,,,1
-8873541.44020043,5420592.44996818,216,00002680,1245,Balmoral Dr at Brookland Dr,,43.709476,-79.712379,,,0,,,1
-8873713.87409167,5420423.97528114,217,00002690,1246,Balmoral Dr e/of Braemar Dr,,43.708382,-79.713928,,,0,,,1
-8873927.94147247,5420079.64352958,218,00002700,1247,Balmoral Dr at Dixie Rd,,43.706146,-79.715851,,,0,,,1
-8874264.23765415,5420386.8619837,219,00002710,1248,Dixie Rd opp Terese Rd,,43.708141,-79.718872,,,0,,,1
-8874634.48628053,5420762.92976978,220,00002720,1249,Dixie Rd s/of Clark Blvd,,43.710583,-79.722198,,,0,,,1
-8871672.16331103,5433568.69688447,221,00002735,3771,Gore Meadows CC - Route 50/50A & 36 Stop,,43.793678,-79.695587,,,0,place_GOMD,,1
-8871801.29392035,5420471.56059869,222,00002740,1251,Avondale Blvd at Bramalea Rd,,43.708691,-79.696747,,,0,,,0
-8871601.69807335,5420295.85033818,223,00002750,1252,Bramalea Rd opp East Dr,,43.707550,-79.694954,,,0,,,0
-8871377.5006189,5420065.01433443,224,00002760,1253,Bramalea Rd at Orenda Rd,,43.706051,-79.692940,,,0,,,1
-8871032.63283642,5419784.13828324,225,00002770,1254,Bramalea Rd s/of Steeles Ave E,,43.704227,-79.689842,,,0,,,1
-8865520.64824979,5422439.71327873,226,00002816,6157,Westwood Mall Terminal Route 14 Stop,,43.721470,-79.640327,,,0,,,1
-8865538.57068781,5422416.7626835,227,00002817,6158,Westwood Mall Terminal Route 30 Stop,,43.721321,-79.640488,,,0,,,1
-8865561.50250291,5422216.98709431,228,00002820,6004,Goreway Dr s/of Morning Star Dr,,43.720024,-79.640694,,,0,,,1
-8865411.10987085,5422073.1267039,229,00002830,6005,Goreway Dr at Jolliffe Ave,,43.719090,-79.639343,,,0,,,1
-8865107.98689742,5421769.85663239,230,00002840,6006,Goreway Dr at Etude Dr,,43.717121,-79.636620,,,0,,,1
-8864805.64316043,5421454.4293657,231,00002850,6007,Goreway Dr n/of Dorcas St,,43.715073,-79.633904,,,0,,,1
-8864602.59640922,5421239.27349391,232,00002855,6008,Goreway Dr n/of Derry Rd,,43.713676,-79.632080,,,0,,,1
-8865068.91375615,5420629.56409227,233,00002870,6009,Derry Rd at Legion Rd,,43.709717,-79.636269,,,0,,,1
-8865427.25119702,5420188.97824858,234,00002880,6010,Derry Rd e/of Hull St (opp Malton GO Station),,43.706856,-79.639488,,,0,,,1
-8865848.48415018,5419620.29786667,235,00002890,6012,Derry Rd w/of Airport Rd,,43.703163,-79.643272,,,0,,,1
-8866089.71348673,5419358.37481984,236,00002900,6013,Derry Rd e/of Harrow St,,43.701462,-79.645439,,,0,,,1
-8866342.85400879,5419041.79815224,237,00002910,6014,Derry Rd w/of Cattrick St,,43.699406,-79.647713,,,0,,,1
-8866938.19064556,5418333.38940098,238,00002920,6015,Torbram Rd n/of Derry Rd,,43.694805,-79.653061,,,0,,,1
-8866962.01301658,5418222.99893107,239,00002925,6016,Derry Rd w/of Torbram Rd,,43.694088,-79.653275,,,0,,,1
-8867168.28803302,5418563.10434481,240,00002930,6017,Torbram Rd n/of Lucknow Dr,,43.696297,-79.655128,,,0,,,0
-8867442.69057783,5418847.94649547,241,00002940,6018,Torbram Rd n/of Anson Dr,,43.698147,-79.657593,,,0,,,0
-8867617.57349787,5419021.16561395,242,00002950,6019,Torbram Rd at Drew Rd,,43.699272,-79.659164,,,0,,,1
-8867994.72393267,5419407.03250753,243,00002960,6020,Torbram Rd at Kimbel St,,43.701778,-79.662552,,,0,,,0
-8868595.96050245,5420020.97289739,244,00002980,6022,Torbram Rd at Rena Rd,,43.705765,-79.667953,,,0,,,1
-8869234.71174062,5420683.00253307,245,00002995,1277,Torbram Rd at 7795 Torbram Rd,,43.710064,-79.673691,,,0,,,1
-8869801.21662927,5421270.53777942,246,00003000,1278,Torbram Rd at Steeles Ave E,,43.713879,-79.678780,,,0,,,1
-8869964.18836379,5421442.10820687,247,00003010,1279,Torbram Rd n/of Steeles Ave E,,43.714993,-79.680244,,,0,,,1
-8870303.93544969,5421741.6710425,248,00003020,1280,Torbram Rd at Walker Dr,,43.716938,-79.683296,,,0,,,1
-8870805.09579724,5422244.55802478,249,00003030,1281,Torbram Rd n/of Bramhurst Ave,,43.720203,-79.687798,,,0,,,0
-8871165.10303046,5422612.38368096,250,00003040,1282,Torbram Rd opp 8458 Torbram Rd,,43.722591,-79.691032,,,0,,,1
-8871538.02332462,5423002.55983396,251,00003050,1283,Torbram Rd at 8555 Torbram Rd,,43.725124,-79.694382,,,0,,,1
-8871856.50838778,5423329.28536418,252,00003055,1284,Torbram Rd at Clark Blvd,,43.727245,-79.697243,,,0,,,1
-8872249.68882926,5423726.5782456,253,00003070,1285,Torbram Rd at 8705 Torbram Rd,,43.729824,-79.700775,,,0,,,0
-8872438.26404667,5423918.68373097,254,00003075,1286,Torbram Rd at 8875 Torbram Rd (Zellers Entrance),,43.731071,-79.702469,,,0,,,0
-8872822.98420685,5424320.77792683,255,00003080,1288,Torbram Rd at Queen St E,,43.733681,-79.705925,,,0,,,1
-8873522.84984547,5425033.65235867,256,00003100,1290,Torbram Rd at Corporation Dr,,43.738308,-79.712212,,,0,,,1
-8874101.15460014,5425632.55876148,257,00003110,1291,Torbram Rd opp Gatewood Dr,,43.742195,-79.717407,,,0,,,1
-8874327.13316645,5425876.47750256,258,00003120,1292,Torbram Rd at Williams Pky E,,43.743778,-79.719437,,,0,,,1
-8874811.15031242,5426372.03916682,259,00003130,1293,Torbram Rd opp Jardine St,,43.746994,-79.723785,,,0,,,0
-8875182.28949472,5426752.35765471,260,00003140,1294,Torbram Rd n/of North Park Dr,,43.749462,-79.727119,,,0,,,1
-8877306.48801804,5428884.77396373,261,00003355,1296,Torbram Rd btwn Sandalwood Pky E and Steeplebush,,43.763298,-79.746201,,,0,,,1
-8877063.58888913,5428635.53507566,262,00003360,1297,Torbram Rd at Steeplebush Ave,,43.761681,-79.744019,,,0,,,1
-8876606.62237942,5428172.21834591,263,00003370,1298,Torbram Rd btwn Steeplebush Ave & Peter Robertson,,43.758675,-79.739914,,,0,,,1
-8876366.2835988,5427925.15643212,264,00003380,1299,Torbram Rd at Peter Robertson Blvd,,43.757072,-79.737755,,,0,,,1
-8874842.65372832,5426357.86228163,265,00003430,1301,Torbram Rd at Jardine St,,43.746902,-79.724068,,,0,,,1
-8874459.60336049,5425961.68879138,266,00003440,1302,Torbram Rd at Williams Pky E,,43.744331,-79.720627,,,0,,,1
-8874141.11829733,5425629.01482225,267,00003450,1303,Torbram Rd at Gatewood Dr,,43.742172,-79.717766,,,0,,,1
-8873639.17871334,5425107.76241424,268,00003460,1304,Torbram Rd at Central Park Dr,,43.738789,-79.713257,,,0,,,1
-8873287.52044193,5424740.91575571,269,00003470,1305,Torbram Rd at Grenadier Rd,,43.736408,-79.710098,,,0,,,1
-8873203.47422638,5424703.93916136,270,00003475,1306,Torbram Rd at Grenadier Rd,,43.736168,-79.709343,,,0,,,1
-8872853.59706682,5424297.82265243,271,00003480,1307,Torbram Rd s/of Queen St E,,43.733532,-79.706200,,,0,,,1
-8872520.64046985,5423962.28160329,272,00003500,1308,Torbram Rd at 8875 Torbram Rd,,43.731354,-79.703209,,,0,,,0
-8872245.45868861,5423683.75174596,273,00003510,1309,Torbram Rd opp 8705 Torbram Rd,,43.729546,-79.700737,,,0,,,0
-8871948.2356482,5423374.57496449,274,00003520,1310,Torbram Rd at Clark Blvd,,43.727539,-79.698067,,,0,,,1
-8871514.20095359,5422933.85805919,275,00003530,1311,Torbram Rd at 8500 Torbram Rd,,43.724678,-79.694168,,,0,,,0
-8871132.0411417,5422538.44769838,276,00003540,1312,Torbram Rd at 8460 Torbram Rd,,43.722111,-79.690735,,,0,,,1
-8870720.9382622,5422115.94572916,277,00003550,1313,Torbram Rd s/of Balmoral Dr,,43.719368,-79.687042,,,0,,,1
-8870393.10236181,5421779.25184814,278,00003560,1314,Torbram Rd at East Dr,,43.717182,-79.684097,,,0,,,1
-8869998.25212797,5421406.2229255,279,00003570,1315,Torbram Rd at Steeles Ave E,,43.714760,-79.680550,,,0,,,1
-8869838.50865868,5421254.05856154,280,00003580,1316,Torbram Rd s/of Steeles Ave E,,43.713772,-79.679115,,,0,,,1
-8869307.73732658,5420705.33280892,281,00003590,1317,1317 Tobram Road at Waste Manager,,43.710209,-79.674347,,,0,,,1
-8868600.30196259,5419975.69975107,282,00003600,6025,Torbram Rd at Rena Rd,,43.705471,-79.667992,,,0,,,1
-8868057.50812548,5419409.95813617,283,00003620,6027,Torbram Rd n/of Kimbel St,,43.701797,-79.663116,,,0,,,1
-8867663.43712807,5419020.549718,284,00003630,6028,Torbram Rd at Drew Rd,,43.699268,-79.659576,,,0,,,0
-8867427.3284881,5418772.80890184,285,00003640,6029,Torbram Rd at Anson Dr,,43.697659,-79.657455,,,0,,,0
-8867175.96907789,5418520.1478317,286,00003650,6030,Torbram Rd at Lucknow Dr,,43.696018,-79.655197,,,0,,,0
-8867050.28937278,5418379.88620038,287,00003660,6031,Torbram Rd n/of Derry Rd,,43.695107,-79.654068,,,0,,,0
-8866290.19988965,5419037.02494898,288,00003670,6032,Derry Rd at Cattrick St,,43.699375,-79.647240,,,0,,,0
-8865868.96693648,5419534.52918411,289,00003680,6033,Derry Rd at Airport Rd,,43.702606,-79.643456,,,0,,,1
-8865423.02105637,5420126.14912503,290,00003690,6034,Derry Rd e/of Hull St (Malton GO Station),,43.706448,-79.639450,,,0,,,1
-8865065.46285194,5420584.90396121,291,00003700,6035,Derry Rd at Professional Court,,43.709427,-79.636238,,,0,,,0
-8864615.39815066,5421325.05801836,292,00003710,6037,Goreway Dr n/of Derry Rd,,43.714233,-79.632195,,,0,,,1
-8864760.55876666,5421466.13448182,293,00003720,6038,Goreway Dr at Dorcas St,,43.715149,-79.633499,,,0,,,1
-8865057.00257064,5421770.47271182,294,00003730,6039,Goreway Dr at Etude Dr,,43.717125,-79.636162,,,0,,,1
-8865372.92728551,5422081.90612814,295,00003740,6040,Goreway Dr at Jolliffe Ave,,43.719147,-79.639000,,,0,,,1
-8871819.10503887,5420562.57397671,296,00003810,1336,Bramalea Rd n/of Dearbourne Blvd,,43.709282,-79.696907,,,0,,,1
-8872104.52821327,5420855.17805751,297,00003820,1337,Bramalea Rd opp Alexandria Gate,,43.711182,-79.699471,,,0,,,0
-8872459.52606941,5421222.3322997,298,00003830,1338,Bramalea Rd opp Algonquin Blvd,,43.713566,-79.702660,,,0,,,0
-8872722.79666514,5421497.86158175,299,00003840,1339,Bramalea Rd at Balmoral Dr,,43.715355,-79.705025,,,0,,,1
-8873363.10637618,5422158.7649531,300,00003850,1340,Bramalea Rd at Clark Blvd,,43.719646,-79.710777,,,0,,,1
-8873760.6282778,5422397.97096348,301,00003864,1341,Knightsbridge Rd w/of Bramalea Rd,,43.721199,-79.714348,,,0,,,1
-8874000.96705843,5422038.31713912,302,00003865,1342,Knightsbridge Rd btwn Kings Cross & Central Pk Dr,,43.718864,-79.716507,,,0,,,1
-8873932.17161311,5422088.37518292,303,00003900,1344,Knightsbridge Rd btwn Central Park & Kings Cross,,43.719189,-79.715889,,,0,,,1
-8873747.82653636,5422372.71002307,304,00003910,1345,Knightsbridge Rd at Bramalea Rd,,43.721035,-79.714233,,,0,,,1
-8874015.43859222,5422839.27842579,305,00003930,1347,Bramalea Rd at Queen St E,,43.724064,-79.716637,,,0,,,1
-8874164.05011244,5422987.92600498,306,00003940,1348,Bramalea Rd n/of Queen St E,,43.725029,-79.717972,,,0,,,1
-8874530.06859817,5423362.25124172,307,00003950,1349,Bramalea Rd at Goodwood Rd,,43.727459,-79.721260,,,0,,,1
-8874933.4904328,5423785.42649379,308,00003960,1350,Bramalea Rd n/of Central Park Dr,,43.730206,-79.724884,,,0,,,1
-8875363.29498675,5424223.10285947,309,00003970,1351,Bramalea Rd s/of Williams Pky E (Salvation Army),,43.733047,-79.728745,,,0,,,1
-8875477.84274278,5424349.58764733,310,00003980,1352,Bramalea Rd at Williams Pky E,,43.733868,-79.729774,,,0,,,1
-8875817.58982868,5424701.62812913,311,00003990,1353,Bramalea Rd n/of Jackson Rd,,43.736153,-79.732826,,,0,,,1
-8876227.80215225,5425119.47216563,312,00004000,1354,Bramalea Rd at North Park Dr,,43.738865,-79.736511,,,0,,,1
-8876937.01862809,5425845.3516946,313,00004030,1357,Bramalea Rd at Bovaird Dr E,,43.743576,-79.742882,,,0,,,1
-8877184.14789766,5426110.38668703,314,00004040,1358,Bramalea Rd n/of Bovaird Dr E,,43.745296,-79.745102,,,0,,,1
-8877425.37723421,5426348.00011347,315,00004050,1359,Bramalea Rd n/of Peter Robertson Blvd,,43.746838,-79.747269,,,0,,,1
-8877619.85238463,5426542.47168787,316,00004060,1360,Bramalea Rd btwn Peter Robertson Blvd & Larkspur R,,43.748100,-79.749016,,,0,,,1
-8877945.12793672,5426878.7230218,317,00004070,1361,Bramalea Rd at Larkspur Rd,,43.750282,-79.751938,,,0,,,1
-8878226.20965098,5427163.35964773,318,00004080,1362,Bramalea Rd n/of Larkspur Rd,,43.752129,-79.754463,,,0,,,1
-8878498.05184749,5427442.61104618,319,00004090,1363,Bramalea Rd at Sandalwood Pky E,,43.753941,-79.756905,,,0,,,1
-8879831.43670821,5428820.03594256,320,00004095,4062,Bramalea Rd at Heslop Cir,,43.762878,-79.768883,,,0,,,1
-8880005.54039182,5428997.14175097,321,00004100,4063,Bramalea Rd s/of Countryside Dr,,43.764027,-79.770447,,,0,,,1
-8880120.97870377,5428978.33662122,322,00004105,4067,Countryside Dr w/of Bramalea Rd,,43.763905,-79.771484,,,0,,,1
-8880319.79531432,5428727.8621157,323,00004106,3654,Countryside Dr opp Everingham Cir,,43.762280,-79.773270,,,0,,,1
-8880479.42746412,5428524.40475592,324,00004107,4068,Countryside Dr e/of Fairservice Dr,,43.760960,-79.774704,,,0,,,1
-8880770.75057153,5428102.2450547,325,00004108,4069,Countryside Dr w/of Fernforest Dr,,43.758221,-79.777321,,,0,,,1
-8879449.27689632,5427039.30199829,326,00004140,1368,Fernforest Dr at Kalahari Rd,,43.751324,-79.765450,,,0,,,1
-8878308.58607416,5427204.96941938,327,00004180,1370,Bramalea Rd s/of Sandalwood Pky E,,43.752399,-79.755203,,,0,,,1
-8878071.69819775,5426956.3923504,328,00004190,1371,Bramalea Rd at Black Forest Dr,,43.750786,-79.753075,,,0,,,1
-8877731.06055592,5426613.66595194,329,00004200,1372,Bramalea Rd btwn Black Forest Dr & Peter Robertson,,43.748562,-79.750015,,,0,,,1
-8877156.9859419,5426013.46312345,330,00004220,1373,Bramalea Rd at Bovaird Dr E,,43.744667,-79.744858,,,0,,,1
-8877451.64863404,5426320.87920542,331,00004225,1374,Bramalea Rd at Peter Robertson Blvd,,43.746662,-79.747505,,,0,,,1
-8876622.76370559,5425481.55734042,332,00004240,1375,Bramalea Rd at Marlbourough St,,43.741215,-79.740059,,,0,,,1
-8876224.46256753,5425063.08060468,333,00004250,1376,Bramalea Rd s/of North Park Dr,,43.738499,-79.736481,,,0,,,1
-8875818.48038461,5424652.78845013,334,00004260,1377,Bramalea Rd at Markham St,,43.735836,-79.732834,,,0,,,1
-8875489.75392829,5424309.53137586,335,00004270,1378,Bramalea Rd s/of Williams Pky E,,43.733608,-79.729881,,,0,,,1
-8875168.70851685,5423979.84405529,336,00004275,3619,Bramalea Rd btwn Williams Pkwy E & Central Park Dr,,43.731468,-79.726997,,,0,,,1
-8874941.17147766,5423743.67809055,337,00004280,1379,Bramalea Rd at Central Park Dr,,43.729935,-79.724953,,,0,,,1
-8874589.51320625,5423384.58800137,338,00004290,1380,Bramalea Rd n/of Goodwood Rd ( Chinguacousy Park ),,43.727604,-79.721794,,,0,,,1
-8873366.5572804,5422117.17793427,339,00004400,1382,Bramalea Rd s/of Clark Blvd,,43.719376,-79.710808,,,0,,,1
-8872793.26190281,5421523.12012764,340,00004410,1383,Bramalea Rd at Balmoral Dr,,43.715519,-79.705658,,,0,,,1
-8872478.11642437,5421202.31092844,341,00004420,1384,Bramalea Rd at Algonquin Blvd,,43.713436,-79.702827,,,0,,,1
-8872143.49003505,5420857.48812662,342,00004430,1385,Bramalea Rd at Alexandria Gate,,43.711197,-79.699821,,,0,,,1
-8871815.76545415,5420516.22018135,343,00004440,1386,Bramalea Rd at Avondale Blvd,,43.708981,-79.696877,,,0,,,1
-8878967.70877915,5427937.02388363,344,00004720,1412,Bramalea Rd s/of Dewside Dr,,43.757149,-79.761124,,,0,,,1
-8871613.60925887,5420658.97829662,345,00004780,1413,Dearbourne Blvd opp Dorset Dr (e/of Bramalea Rd),,43.709908,-79.695061,,,0,,,1
-8871278.98286955,5421089.576018,346,00004790,1414,Dearbourne Blvd opp Delmere Rd,,43.712704,-79.692055,,,0,,,1
-8871222.09860975,5421295.79570318,347,00004800,1415,Dearbourne Blvd at Deerfield Cres (S),,43.714043,-79.691544,,,0,,,1
-8871248.37000958,5421514.34123496,348,00004810,1416,Dearbourne Blvd opp Dorchester Dr,,43.715462,-79.691780,,,0,,,1
-8871294.23363979,5421801.58477645,349,00004820,1417,Dearbourne Blvd opp Devonshire Dr,,43.717327,-79.692192,,,0,,,1
-8871402.99278229,5422115.94572916,350,00004830,1418,Balmoral Dr w/of Dearbourne Blvd,,43.719368,-79.693169,,,0,,,1
-8871568.5248651,5422238.7049712,351,00004840,1419,Balmoral Dr at Drake Blvd,,43.720165,-79.694656,,,0,,,1
-8871864.96866908,5422526.12509222,352,00004850,1420,Eastbourne Dr n/of Balmoral Dr,,43.722031,-79.697319,,,0,,,1
-8871962.59586251,5422730.52844935,353,00004860,1421,Eastbourne Dr s/of Enderby Cres,,43.723358,-79.698196,,,0,,,1
-8872112.98849457,5423013.80479199,354,00004870,1422,Eastbourne Dr opp Evesham Cres (s/of Clark Blvd),,43.725197,-79.699547,,,0,,,1
-8872135.92030968,5423003.17599568,355,00005080,1424,Eastbourne Dr at Evesham Cres (E),,43.725128,-79.699753,,,0,,,1
-8871986.41823354,5422723.44280131,356,00005090,1425,Eastbourne Dr s/of Evesham Cres (Recreation Cen),,43.723312,-79.698410,,,0,,,1
-8871894.69097312,5422542.45254893,357,00005100,1426,Eastbourne Dr at Balmoral Dr,,43.722137,-79.697586,,,0,,,1
-8871637.32031041,5422258.72859093,358,00005110,1427,Balmoral Dr at Deloraine Dr,,43.720295,-79.695274,,,0,,,1
-8871436.05467105,5422107.16627254,359,00005120,1428,Balmoral Dr at Dearbourne Blvd,,43.719311,-79.693466,,,0,,,1
-8871312.04475831,5421760.46142619,360,00005130,1429,Dearbourne Blvd at Devonshire Dr,,43.717060,-79.692352,,,0,,,1
-8871278.09231362,5421542.52613059,361,00005140,1430,Dearbourne Blvd at Dorchester Dr,,43.715645,-79.692047,,,0,,,0
-8871247.47945365,5421333.99074359,362,00005150,1431,Dearbourne Blvd opp Deerfield Cres (S),,43.714291,-79.691772,,,0,,,0
-8871282.32245427,5421143.63315978,363,00005160,1432,Dearbourne Blvd at Delmere Rd,,43.713055,-79.692085,,,0,,,1
-8871627.19023675,5420681.77051942,364,00005170,1433,Dearbourne Blvd at Dorset Dr (e/of Bramalea Rd),,43.710056,-79.695183,,,0,,,1
-8874944.51106239,5422334.51068356,365,00005260,1435,Hanover Rd w/of Hartnell Sq,,43.720787,-79.724983,,,0,,,1
-8875289.37884487,5421907.39738516,366,00005270,1436,Hanover Rd at Helena Crt,,43.718014,-79.728081,,,0,,,0
-8875458.36183189,5422027.84349046,367,00005280,1437,Hanover Rd opp Hasting Square,,43.718796,-79.729599,,,0,,,1
-8875661.2972636,5422239.32108193,368,00005290,1438,Hanover Rd s/of Howden Blvd,,43.720169,-79.731422,,,0,,,1
-8875922.89806697,5422148.90727243,369,00005300,1439,Howden Blvd at Dixie Rd,,43.719582,-79.733772,,,0,,,0
-8876359.49310986,5421959.61104085,370,00005310,1440,Howden Blvd at Leander St,,43.718353,-79.737694,,,0,,,1
-8876779.05627066,5421770.47271182,371,00005320,1441,Howden Blvd at Vodden Rd E,,43.717125,-79.741463,,,0,,,1
-8877064.36812556,5421934.96739074,372,00005330,1442,Howden Blvd at Ladin Dr,,43.718193,-79.744026,,,0,,,1
-8877227.45117958,5422115.32962667,373,00005340,1443,Howden Blvd at Leander St,,43.719364,-79.745491,,,0,,,1
-8877412.57549277,5422323.88266964,374,00005350,1444,North Park Dr n/of Williams Pwky E,,43.720718,-79.747154,,,0,,,0
-8877857.63081695,5422641.80420545,375,00005360,1445,North Park Dr opp Nuttall St,,43.722782,-79.751152,,,0,,,1
-8878112.44113138,5422806.93056518,376,00005370,1446,North Park Dr at Neptune Crt,,43.723854,-79.753441,,,0,,,1
-8878224.53985861,5423297.08983112,377,00005380,1447,Nasmith St n/of North Park Dr,,43.727036,-79.754448,,,0,,,0
-8878509.85171352,5423486.87564669,378,00005390,1448,Nasmith St at Nevada Crt,,43.728268,-79.757011,,,0,,,1
-8878622.84099667,5423603.79920846,379,00005400,1449,Nasmith St at Newport St,,43.729027,-79.758026,,,0,,,1
-8878786.81460661,5423772.94816896,380,00005410,1450,Nasmith St at Bovaird Dr E,,43.730125,-79.759499,,,0,,,1
-8878751.97160599,5423708.4000668,381,00005450,1452,Nasmith St s/of Bovaird Dr E,,43.729706,-79.759186,,,0,,,0
-8878509.85171352,5423461.61172523,382,00005460,1453,Nasmith St at Niagara Place,,43.728104,-79.757011,,,0,,,0
-8878196.48734693,5423219.45130436,383,00005470,1454,North Park Dr w/of Nasmith St,,43.726532,-79.754196,,,0,,,1
-8878163.42545817,5422836.96786055,384,00005480,1455,North Park Dr at Nuffield St,,43.724049,-79.753899,,,0,,,1
-8877804.08614188,5422588.97055572,385,00005490,1456,North Park Dr opp Northampton St,,43.722439,-79.750671,,,0,,,1
-8877499.1820566,5422361.61987596,386,00005500,1457,North Park Dr n/of Williams Pky E,,43.720963,-79.747932,,,0,,,1
-8877308.93704684,5422162.92366529,387,00005510,1458,Howden Blvd s/of Williams Pky E,,43.719673,-79.746223,,,0,,,1
-8877118.69203707,5421956.0685121,388,00005520,1459,Howden Blvd at La france Rd,,43.718330,-79.744514,,,0,,,1
-8876830.81983388,5421738.74467472,389,00005530,1460,Howden Blvd at Vodden St,,43.716919,-79.741928,,,0,,,1
-8876429.95834753,5421925.57201646,390,00005540,1461,Howden Blvd at Heath Dr,,43.718132,-79.738327,,,0,,,1
-8875978.11253441,5422048.32872616,391,00005550,1462,Howden Blvd at Dixie Rd,,43.718929,-79.734268,,,0,,,1
-8875777.73745098,5422243.47983042,392,00005560,1463,Howden Blvd at Hanover Rd,,43.720196,-79.732468,,,0,,,1
-8875555.98902531,5422094.84424224,393,00005570,1464,Hanover Rd at Homeland Crt,,43.719231,-79.730476,,,0,,,1
-8875320.77094127,5421887.37452771,394,00005580,1465,Hanover Rd at Helena Crt,,43.717884,-79.728363,,,0,,,1
-8874967.44287749,5422251.64330514,395,00005590,1466,Hanover Rd opp Huntingwood Cres,,43.720249,-79.725189,,,0,,,1
-8867145.35621792,5413063.67831076,396,00005660,6041,Dixie Rd n/of Meyerside Dr,,43.660568,-79.654922,,,0,,,1
-8867254.11536043,5412802.55663404,397,00005670,6042,Meyerside Dr at Ordan Dr,,43.658871,-79.655899,,,0,,,1
-8867539.53853482,5412452.66208023,398,00005680,6043,Meyerside Dr at Vipond Dr,,43.656597,-79.658463,,,0,,,0
-8867833.31067102,5412070.62436476,399,00005690,6044,Meyerside Dr at Shawson Dr,,43.654114,-79.661102,,,0,,,1
-8868250.31348353,5411567.67572056,400,00005700,6045,Meyerside Dr at Tomken Rd,,43.650845,-79.664848,,,0,,,1
-8868547.64784344,5411868.76466071,401,00005710,6046,Tomken Rd at Tristar Dr,,43.652802,-79.667519,,,0,,,1
-8868846.54067622,5412157.40077585,402,00005720,6047,Tomken Rd at Courtneypark Dr,,43.654678,-79.670204,,,0,,,1
-8868462.71107197,5412419.88899467,403,00005725,6048,Courtneypark Dr btwn Tomken Rd and Shawson Dr,,43.656384,-79.666756,,,0,,,0
-8868249.5342471,5412615.91378288,404,00005735,6050,Courtneypark Dr e/of Shawson Dr,,43.657658,-79.664841,,,0,,,0
-8868038.91777052,5412835.94656067,405,00005740,6051,Courtneypark Dr at Vipond Dr,,43.659088,-79.662949,,,0,,,1
-8867715.31201078,5413229.86448214,406,00005750,6052,Courtneypark Dr at Ordan Dr,,43.661648,-79.660042,,,0,,,1
-8867484.32406739,5413523.92900484,407,00005770,6054,Courtneypark Dr e/of Dixie Rd,,43.663559,-79.657967,,,0,,,0
-8867165.83900423,5413913.10570815,408,00005780,6055,Courtneypark Dr at Van Deemter Crt,,43.666088,-79.655106,,,0,,,0
-8866951.77162343,5414171.9503801,409,00005790,6056,Courtneypark Dr at 1750 Courtneypark Dr,,43.667770,-79.653183,,,0,,,0
-8866792.91871007,5414364.62662845,410,00005800,6057,Courtneypark Dr at 1820 Courtneypark Dr,,43.669022,-79.651756,,,0,,,0
-8866421.00029133,5414794.93090759,411,00005810,6058,Courtneypark Dr at Netherhart Rd,,43.671818,-79.648415,,,0,,,1
-8866249.34563653,5414593.01166804,412,00005820,6059,Netherhart Rd at Bonhill Rd,,43.670506,-79.646873,,,0,,,0
-8866057.4308344,5414230.73775507,413,00005825,6060,Meyerside Dr w/of Netherhart Rd,,43.668152,-79.645149,,,0,,,0
-8866239.21556287,5414019.90518732,414,00005840,6061,Meyerside Dr at 1795 Meyerside Dr,,43.666782,-79.646782,,,0,,,0
-8866406.52875753,5413800.92141782,415,00005850,6062,Meyerside Dr at 1715 Meyerside Dr,,43.665359,-79.648285,,,0,,,0
-8866571.2816039,5413603.17876369,416,00005860,6063,Meyerside Dr at 1675 Meyerside Dr,,43.664074,-79.649765,,,0,,,0
-8866905.90799323,5413246.79101919,417,00005870,6064,Meyerside Dr at Bonhill Rd,,43.661758,-79.652771,,,0,,,1
-8867066.43069895,5413047.21373247,418,00005880,6065,Meyerside Dr at Dixie Rd,,43.660461,-79.654213,,,0,,,1
-8867453.71120741,5413456.3748928,419,00005890,6066,Dixie Rd s/of Courtneypark Dr,,43.663120,-79.657692,,,0,,,1
-8867612.56412078,5413606.1025542,420,00005900,6067,Dixie Rd n/of Courtneypark Dr,,43.664093,-79.659119,,,0,,,1
-8868235.0627133,5414242.43371723,421,00005910,6068,Dixie Rd opp Mid-Way Blvd,,43.668228,-79.664711,,,0,,,1
-8868821.93906876,5414851.87539352,422,00005920,6069,Dixie Rd at Director Gate,,43.672188,-79.669983,,,0,,,0
-8869115.82252445,5415143.6829169,423,00005930,6070,Dixie Rd S/of Carlcrest Rd,,43.674084,-79.672623,,,0,,,0
-8869384.21381676,5415430.72832041,424,00005940,6071,Dixie Rd n/of Derry Rd,,43.675949,-79.675034,,,0,,,1
-8869693.34804269,5415720.86102426,425,00005943,6194,Dixie Rd opp Sikh Temple,,43.677834,-79.677811,,,0,,,1
-8870138.29204739,5416204.64102198,426,00005950,6072,Dixie Rd s/of Drew Rd,,43.680977,-79.681808,,,0,,,1
-8870707.35728433,5416787.11928934,427,00005955,6219,Dixie Rd at 407 Sportsplex,,43.684761,-79.686920,,,0,,,1
-8871581.32660654,5417689.07871889,428,00005960,1498,Dixie Rd at Advance Blvd,,43.690620,-79.694771,,,0,,,1
-8872223.41742943,5418347.55396407,429,00005970,1499,Dixie Rd at Steeles Ave E,,43.694897,-79.700539,,,0,,,1
-8872379.59867502,5418493.81974505,430,00005980,1500,Dixie Rd n/of Steeles Ave E,,43.695847,-79.701942,,,0,,,1
-8872685.39331623,5418753.87062945,431,00005990,1501,Dixie Rd btwn Steeles Ave E and Orenda Rd,,43.697536,-79.704689,,,0,,,1
-8873076.12472892,5419166.82616161,432,00006000,1502,Dixie Rd n/of Orenda Rd,,43.700218,-79.708199,,,0,,,1
-8873294.31093087,5419378.85413182,433,00006010,1503,Dixie Rd at Birchbank Rd,,43.701595,-79.710159,,,0,,,1
-8873916.92084287,5420023.89872061,434,00006020,1505,Dixie Rd s/of Balmoral Dr,,43.705784,-79.715752,,,0,,,1
-8875001.39532218,5421148.25344299,435,00006080,1506,Dixie Rd at Lisa St (BCC Mall Entrance),,43.713085,-79.725494,,,0,,,1
-8875410.82840932,5421578.41194193,436,00006090,1507,Dixie Rd n/of Queen St E,,43.715878,-79.729172,,,0,,,1
-8875755.58487231,5421928.49844349,437,00006100,1508,Dixie Rd opp Hazelwood Dr,,43.718151,-79.732269,,,0,,,1
-8875980.67288269,5422167.08237936,438,00006110,1509,Dixie Rd n/of Howden Blvd,,43.719700,-79.734291,,,0,,,1
-8876187.05921862,5422381.48973232,439,00006120,1510,Dixie Rd at Crescent Hill Dr,,43.721092,-79.736145,,,0,,,1
-8876582.02077196,5422785.82749818,440,00006130,1511,Dixie Rd at Lascelles Blvd,,43.723717,-79.739693,,,0,,,1
-8876879.24381237,5423093.75221743,441,00006140,1512,Dixie Rd n/of Williams Pky E,,43.725716,-79.742363,,,0,,,1
-8877077.94910344,5423297.08983112,442,00006150,1513,Dixie Rd at Mansion St,,43.727036,-79.744148,,,0,,,1
-8877483.93128636,5423721.95667132,443,00006160,1514,Dixie Rd at North Park Dr,,43.729794,-79.747795,,,0,,,0
-8877934.88654357,5424175.03601353,444,00006170,1515,Dixie Rd n/of Moregate Cres,,43.732735,-79.751846,,,0,,,1
-8877731.95111185,5423969.83037242,445,00006175,1516,Dixie Rd bwtn North Park and Moregate Cres,,43.731403,-79.750023,,,0,,,0
-8878316.26711902,5424584.6906542,446,00006180,1517,Dixie Rd n/of Bovaird Dr E,,43.735394,-79.755272,,,0,,,1
-8878504.84233643,5424765.10469137,447,00006185,1518,Dixe Rd btwn Bovaird Dr and Peter Robertson Blvd,,43.736565,-79.756966,,,0,,,1
-8878822.43684366,5425089.42743863,448,00006190,1519,Dixie Rd at Peter Robertson Blvd,,43.738670,-79.759819,,,0,,,1
-8879007.56115685,5425275.86040185,449,00006200,1520,Dixie Rd n/of Peter Robertson Blvd,,43.739880,-79.761482,,,0,,,1
-8879205.48721148,5425480.32468593,450,00006210,1521,Dixie Rd btwn Peter Robertson Blvd and Springtown,,43.741207,-79.763260,,,0,,,1
-8879442.37508789,5425726.08843232,451,00006220,1522,Dixie Rd at Springtown Trail,,43.742802,-79.765388,,,0,,,1
-8879778.78258907,5426071.7095944,452,00006230,1523,Dixie Rd at Sandalwood Pky E,,43.745045,-79.768410,,,0,,,1
-8879907.8018789,5426195.75423042,453,00006235,1524,Dixie Rd n/of Sandalwood Pky,,43.745850,-79.769569,,,0,,,1
-8880091.25639972,5426386.21607382,454,00006240,1525,Dixie Rd btwn Sandalwood Pky E & Octillo Blvd,,43.747086,-79.771217,,,0,,,1
-8880241.64903179,5426538.92739904,455,00006250,1526,Dixie Rd at Octillo Blvd,,43.748077,-79.772568,,,0,,,1
-8880831.08573554,5427136.85277998,456,00006253,3527,Dixie Rd at Father Tobin Rd,,43.751957,-79.777863,,,0,,,1
-8880448.03536772,5426742.95737342,457,00006255,1527,Dixie Rd n/of Octillo Blvd,,43.749401,-79.774422,,,0,,,1
-8880949.9749517,5427263.22341507,458,00006258,4073,Dixie Rd n/of Father Tobin Rd,,43.752777,-79.778931,,,0,,,1
-8881186.08359168,5427576.53759201,459,00006260,4074,Countryside Dr e/of Dixie Rd,,43.754810,-79.781052,,,0,,,1
-8881021.3307453,5427784.75176877,460,00006262,4075,Countryside Dr w/of Moira Creek Dr,,43.756161,-79.779572,,,0,,,1
-8879298.88426426,5426854.06622886,461,00006310,1531,Fernforest Dr at Sandalwood Pky E,,43.750122,-79.764099,,,0,,,1
-8879778.78258907,5426004.67995737,462,00006330,1532,Dixie Rd s/of Sandalwood Pky E,,43.744610,-79.768410,,,0,,,1
-8879565.6057642,5425788.95569623,463,00006340,1533,Dixie Rd at Springtown Trail,,43.743210,-79.766495,,,0,,,1
-8879226.74923423,5425443.96145255,464,00006350,1534,Dixie Rd btwn Springtown Trail and Peter Robertson,,43.740971,-79.763451,,,0,,,1
-8878899.69257027,5425102.36977057,465,00006360,1535,Dixie Rd n/of Guru Nanak St,,43.738754,-79.760513,,,0,,,1
-8878475.12003239,5424675.74460773,466,00006370,1536,Dixie Rd n/of Bovaird Dr E,,43.735985,-79.756699,,,0,,,0
-8878212.6286731,5424394.72819245,467,00006380,1537,Dixie Rd s/of Bovaird Dr E,,43.734161,-79.754341,,,0,,,1
-8877930.65640292,5424115.56904427,468,00006390,1538,Dixie Rd at Northcliffe St,,43.732349,-79.751808,,,0,,,0
-8877751.43202274,5423938.71099656,469,00006400,1539,Dixie Rd btwn Northcliffe St and North Park Dr,,43.731201,-79.750198,,,0,,,0
-8877486.49163465,5423668.96278507,470,00006410,1540,Dixie Rd s/of North Park Dr,,43.729450,-79.747818,,,0,,,1
-8877153.53503769,5423317.57788462,471,00006420,1541,Dixie Rd at Northampton St,,43.727169,-79.744827,,,0,,,1
-8873994.17656948,5420047.30533974,472,00006550,1543,Dixie Rd at Balmoral Dr (Rogers),,43.705936,-79.716446,,,0,,,1
-8873602.66592037,5419633.23253067,473,00006560,1544,Dixie Rd n/of Orenda Rd,,43.703247,-79.712929,,,0,,,1
-8873290.08079022,5419298.47694255,474,00006570,1545,Dixie Rd s/of Orenda Rd (N),,43.701073,-79.710121,,,0,,,1
-8873088.81515086,5419122.17310674,475,00006575,1546,Dixie Rd at Orenda Rd (S),,43.699928,-79.708313,,,0,,,1
-8872799.16183582,5418793.2869149,476,00006576,1547,Dixie Rd btwn Orenda Rd & Steeles Ave E,,43.697792,-79.705711,,,0,,,1
-8872414.44167564,5418450.24769639,477,00006580,1548,Dixie Rd n/of Steeles Ave E,,43.695564,-79.702255,,,0,,,1
-8872175.77268737,5418223.61477383,478,00006590,1549,Dixie Rd s/of Steeles Ave E,,43.694092,-79.700111,,,0,,,1
-8871771.57161631,5417802.54187836,479,00006600,1550,Dixie Rd at Advance Blvd,,43.691357,-79.696480,,,0,,,1
-8870252.17188647,5416241.58358413,480,00006610,6073,Dixie Rd at Drew Rd,,43.681217,-79.682831,,,0,,,1
-8869757.91334735,5415724.86291838,481,00006620,6074,Dixie Rd at 7080 Dixie Rd,,43.677860,-79.678391,,,0,,,1
-8869446.21877312,5415401.94642178,482,00006630,6075,Dixie Rd at Derry Rd,,43.675762,-79.675591,,,0,,,1
-8868873.70263198,5414858.33938438,483,00006640,6076,Dixie Rd at Director Gate,,43.672230,-79.670448,,,0,,,1
-8868319.99948477,5414277.06000779,484,00006650,6078,Dixie Rd at Mid-way Blvd,,43.668453,-79.665474,,,0,,,1
-8867598.9831429,5413523.92900484,485,00006670,6081,Dixie Rd n/of Courtneypark Dr,,43.663559,-79.658997,,,0,,,1
-8875440.55071336,5423091.28754658,486,00006740,1560,Hilldale Cres at Hayden Crt,,43.725700,-79.729439,,,0,,,1
-8875657.06712295,5423063.0979204,487,00006750,1561,Hilldale Cres opp Holley Hedge Crt,,43.725517,-79.731384,,,0,,,1
-8875714.84193868,5423255.34363732,488,00006760,1562,Hilldale Cres at Hamlet Crt,,43.726765,-79.731903,,,0,,,1
-8875626.56558248,5423369.95356653,489,00006770,1563,Hilldale Cres at Hyde Park Crt,,43.727509,-79.731110,,,0,,,1
-8875433.76022442,5423619.66641996,490,00006780,1564,Hilldale Cres opp Hallcrown Crt,,43.729130,-79.729378,,,0,,,1
-8875188.30074722,5423653.71169398,491,00006790,1565,Hilldale Cres opp Hedley Crt,,43.729351,-79.727173,,,0,,,0
-8875904.19639252,5423941.6380621,492,00006820,1566,Williams Pky E at Mackay St S,,43.731220,-79.733604,,,0,,,1
-8875995.14441649,5424001.56608164,493,00006830,1567,Mackay St S n/of Williams Pky E,,43.731609,-79.734421,,,0,,,1
-8876333.11039054,5424290.11955302,494,00006840,1568,Mackay St S n/of Manorcrest St,,43.733482,-79.737457,,,0,,,1
-8876582.02077196,5424386.56282152,495,00006850,1569,Mackay St S at Guildford Cres (S),,43.734108,-79.739693,,,0,,,1
-8876999.8028209,5424575.13851488,496,00006860,1570,Mackay St N at Morley Cres (S),,43.735332,-79.743446,,,0,,,1
-8877393.87381831,5424648.6286156,497,00006870,1571,Mackay St N at McMullen Cres,,43.735809,-79.746986,,,0,,,1
-8877628.31266592,5424834.43638702,498,00006880,1572,Mackay St N n/of Massey St,,43.737015,-79.749092,,,0,,,1
-8877808.42760203,5424982.49981935,499,00006890,1573,Mackay St N at Bovaird Dr E,,43.737976,-79.750710,,,0,,,1
-8878068.24729354,5425215.30779489,500,00006900,1574,Fernforest Dr n/of Homewood St,,43.739487,-79.753044,,,0,,,1
-8878592.22813671,5426160.46682878,501,00006930,1575,Fernforest Dr n/of Blackforest Dr,,43.745621,-79.757751,,,0,,,1
-8878864.96088914,5426437.22229982,502,00006940,1576,Fernforest Dr n/of Deerglen Dr,,43.747417,-79.760201,,,0,,,1
-8879170.64421086,5426764.685907,503,00006950,1577,Fernforest Dr at Sandalwood Pky E,,43.749542,-79.762947,,,0,,,1
-8880025.0213027,5424941.9785814,504,00006990,1578,Great Lakes Dr at Harold M. Braithwaite S.S,,43.737713,-79.770622,,,0,,,1
-8879270.83175258,5426791.80812002,505,00007110,1580,Sandalwood Pky E at Fernforest Dr,,43.749718,-79.763847,,,0,,,1
-8879146.0426034,5426700.57917506,506,00007120,1581,Fernforest Dr at Hollybush St,,43.749126,-79.762726,,,0,,,1
-8878894.68319318,5426444.31080068,507,00007130,1582,Fernforest Dr s/of Rainforest Dr,,43.747463,-79.760468,,,0,,,1
-8878565.06618095,5426108.07530243,508,00007140,1583,Fernforest Dr at Black Oak Dr,,43.745281,-79.757507,,,0,,,1
-8876576.90007538,5424359.4476793,509,00007240,1584,Mackay St S s/of Malabar Cres,,43.733932,-79.739647,,,0,,,1
-8875811.68989567,5423999.25522534,510,00007270,1585,Williams Pky E e/of Mackay St S,,43.731594,-79.732773,,,0,,,1
-8875619.77509354,5424229.57341555,511,00007280,1586,Williams Pky E at Bramalea Rd  (North Peel S.S.),,43.733089,-79.731049,,,0,,,1
-8875174.71976935,5423673.73838444,512,00007320,1587,Hilldale Cres at Hedley Crt,,43.729481,-79.727051,,,0,,,1
-8875449.90155059,5423638.46062809,513,00007330,1588,Hilldale Cres at Hallcrown Crt,,43.729252,-79.729523,,,0,,,1
-8875614.65439697,5423424.48621007,514,00007340,1589,Hilldale Cres at Homer Square,,43.727863,-79.731003,,,0,,,1
-8875736.88319785,5423266.43485858,515,00007350,1590,Hilldale Cres at Hamlet Crt,,43.726837,-79.732101,,,0,,,1
-8875663.07837546,5423039.68365158,516,00007360,1591,Hilldale Cres at Hollyhedge Crt,,43.725365,-79.731438,,,0,,,1
-8875376.87596463,5423076.65357688,517,00007370,1592,Hilldale Cres s/of Hector Crt,,43.725605,-79.728867,,,0,,,1
-8882692.68158007,5415560.47884865,518,00007455,1593,Major William Sharpe Dr e/of Chinguacousy Rd,,43.676792,-79.794586,,,0,,,1
-8882500.76677794,5415714.85818632,519,00007460,1594,Major William Sharpe Dr w/of Alloway Gate,,43.677795,-79.792862,,,0,,,1
-8882275.67876756,5415736.71469191,520,00007470,1595,Major William Sharpe Dr s/of Castlehill Rd,,43.677937,-79.790840,,,0,,,1
-8882097.34494331,5415602.19025974,521,00007480,1596,Major William Sharpe Dr n/of Murdoch Dr,,43.677063,-79.789238,,,0,,,1
-8881958.08426033,5415407.33340133,522,00007490,1597,Major William Sharpe Dr at Flowertown Ave,,43.675797,-79.787987,,,0,,,0
-8881724.53596864,5415519.99895085,523,00007500,1598,Flowertown Ave w/of Phelps Dr,,43.676529,-79.785889,,,0,,,1
-8881548.65117319,5415706.08481482,524,00007510,1599,Flowertown Ave w/of Grange St,,43.677738,-79.784309,,,0,,,1
-8881352.50623041,5415938.65893684,525,00007520,1600,Flowertown Ave w/of Cumbrian Crt,,43.679249,-79.782547,,,0,,,0
-8881150.35003513,5416186.93942999,526,00007530,1601,Flowertown Ave e/of Fairfield Ave,,43.680862,-79.780731,,,0,,,0
-8880986.48774468,5416383.65989811,527,00007535,1602,Flowertown Ave w/of McLaughlin Rd N,,43.682140,-79.779259,,,0,,,1
-8879803.38419653,5415720.86102426,528,00007600,1604,Queen St W opp Mercer Dr,,43.677834,-79.768631,,,0,,,1
-8879630.95030529,5415936.35009812,529,00007610,1605,Queen St W e/of Haggart Ave S,,43.679234,-79.767082,,,0,,,1
-8879456.06738526,5416154.7687975,530,00007620,1606,McMurchy - Zum Queen West Station Stop EB,,43.680653,-79.765511,,,0,,,0
-8879184.22518874,5416498.80026957,531,00007630,1607,Queen St W at Mill St S,,43.682888,-79.763069,,,0,,,1
-8879067.00576494,5416649.65480048,532,00007640,1608,Queen St W at Elizabeth St S,,43.683868,-79.762016,,,0,,,1
-8879071.23590559,5416978.00282425,533,00007650,1609,George St n/of Diplock Lane,,43.686001,-79.762054,,,0,,,0
-8878635.64273811,5417194.13700927,534,00007675,1612,Queen St E e/of Chapel St,,43.687405,-79.758141,,,0,,,1
-8878420.68480139,5417458.3078835,535,00007680,1613,Queen St E w/of James St,,43.689121,-79.756210,,,0,,,1
-8878012.25358967,5418008.68814706,536,00007700,1615,Queen St E at Trueman St,,43.692696,-79.752541,,,0,,,1
-8877917.07542504,5418125.54233283,537,00007710,1616,Queen St E opp Beech St,,43.693455,-79.751686,,,0,,,1
-8877436.39786379,5418716.30213902,538,00007730,1618,Queen St E btwn Kennedy Rd N & Hansen Rd,,43.697292,-79.747368,,,0,,,1
-8877216.43054999,5418982.36424895,539,00007740,1619,Queen St E e/of Hansen Rd,,43.699020,-79.745392,,,0,,,1
-8877109.45251933,5419115.24420379,540,00007750,1620,Queen St btwn Hansen Rd & Rutherford Rd,,43.699883,-79.744431,,,0,,,1
-8875870.24394783,5420377.46818518,541,00007790,1622,West Drive s/of Queen St E,,43.708080,-79.733299,,,0,,,1
-8875462.59197254,5420000.33817051,542,00007800,1624,West Dr n/of Clark Blvd (100 West Dr),,43.705631,-79.729637,,,0,,,1
-8871257.7208468,5426149.83440672,543,00007970,4082,Delta Park Blvd s/of Queen St - 1A,,43.745552,-79.691864,,,0,,,0
-8871119.23940026,5425862.91773173,544,00007980,1629,Delta Park Blvd at 170 Delta Park Blvd - 1A,,43.743690,-79.690620,,,0,,,1
-8871042.87422957,5425688.9538037,545,00007990,1630,Delta Park Blvd at Nevets Rd - 1A,,43.742561,-79.689934,,,0,,,0
-8871278.09231362,5425486.79612384,546,00007995,1631,Nevets Rd at Airport - 1A,,43.741249,-79.692047,,,0,,,1
-8871383.40055191,5425388.64646987,547,00008000,1632,Coventry Rd w/of Airport Rd - 1A,,43.740612,-79.692993,,,0,,,1
-8871646.67114764,5425120.08846876,548,00008020,1634,Conventry Rd at Walker Dr,,43.738869,-79.695358,,,0,,,1
-8871872.64971395,5425177.0966851,549,00008030,1635,Walker Dr at 299 Walker Dr ( Bell Building ) - 1A,,43.739239,-79.697388,,,0,,,1
-8872040.74214505,5424973.10134146,550,00008040,1636,Walker Rd at Gateway Blvd - 1A,,43.737915,-79.698898,,,0,,,0
-8872201.26485077,5425025.48642221,551,00008050,1637,Gateway Blvd at Queen St E - 1A,,43.738255,-79.700340,,,0,,,1
-8872645.42961903,5424746.77039674,552,00008070,1638,Queen St E w/of Tim Hortons (2433 Queen St E),,43.736446,-79.704330,,,0,,,0
-8875424.4093872,5420012.19543331,553,00008200,1641,West Dr at 83 West Dr,,43.705708,-79.729294,,,0,,,1
-8875775.17710269,5420338.19913098,554,00008210,1642,West Dr at 115 West Dr,,43.707825,-79.732445,,,0,,,1
-8877133.16357087,5419157.43360455,555,00008245,1643,Queen St E at 300 Queen St E,,43.700157,-79.744644,,,0,,,1
-8877340.44046273,5418905.53186844,556,00008250,1644,Queen St E w/of Hansen Rd,,43.698521,-79.746506,,,0,,,1
-8877489.05198294,5418724.00058772,557,00008260,1645,Queen St E btwn Hansen Rd & Kennedy Rd N,,43.697342,-79.747841,,,0,,,1
-8877901.8246548,5418200.05881775,558,00008280,1647,Queen St E at Beech St,,43.693939,-79.751549,,,0,,,1
-8878067.35673761,5417991.59892369,559,00008290,1648,Queen St E at 164 Queen St,,43.692585,-79.753036,,,0,,,1
-8878428.36584625,5417504.18448152,560,00008310,1651,Queen St E w/of Scott St,,43.689419,-79.756279,,,0,,,1
-8878677.16490817,5417177.66506638,561,00008320,1652,Queen St E e/of Theatre Lane,,43.687298,-79.758514,,,0,,,1
-8879011.7912975,5416889.33385279,562,00008340,1654,George St opp Diplock Lane,,43.685425,-79.761520,,,0,,,1
-8879117.99009172,5416622.71631065,563,00008350,1655,Queen St W at Mill St N,,43.683693,-79.762474,,,0,,,1
-8879238.54910024,5416472.93974028,564,00008360,1656,Queen St W at Park St,,43.682720,-79.763557,,,0,,,1
-8879514.62143742,5416127.0621225,565,00008370,1657,McMurchy - Zum Queen West Station Stop WB,,43.680473,-79.766037,,,0,,,1
-8879667.46309828,5415930.96280999,566,00008380,1658,Queen St W at Haggert Ave N,,43.679199,-79.767410,,,0,,,1
-8879822.86510742,5415736.71469191,567,00008390,1659,Queen St W at Mercer Dr,,43.677937,-79.768806,,,0,,,1
-8880100.60723695,5415399.02206277,568,00008400,1660,McLaughlin - Zum Queen West Station Stop WB,,43.675743,-79.771301,,,0,,,1
-8880444.5844635,5414969.92089202,569,00008410,1661,Queen St W e/of Kimbark Dr,,43.672955,-79.774391,,,0,,,1
-8880819.17455002,5414637.02722361,570,00008420,1662,Major William Sharpe Dr n/of Queen St W,,43.670792,-79.777756,,,0,,,1
-8881401.82076484,5414750.91459957,571,00008430,1663,Major William Sharpe Dr n/of Burgby Ave,,43.671532,-79.782990,,,0,,,1
-8881648.05947847,5414956.3771337,572,00008440,1664,Major William Sharpe Dr opp Candy Cres (S),,43.672867,-79.785202,,,0,,,1
-8881990.36691266,5415379.01331542,573,00008450,1665,Flowertown Ave w/of Major William Sharpe Dr,,43.675613,-79.788277,,,0,,,0
-8882297.83134623,5415119.51918011,574,00008460,1666,Flowertown Ave at Chinguacousy Rd,,43.673927,-79.791039,,,0,,,1
-8876976.8710058,5412405.11806453,575,00008500,1667,McLaughlin Rd s/of Steeles Ave W,,43.656288,-79.743240,,,0,,,1
-8876832.48962624,5412634.07013542,576,00008510,1668,Steeles Ave W e/of McLaughlin Rd S (Sheridan Ent),,43.657776,-79.741943,,,0,place_SHER,,1
-8876440.97897712,5413202.78208735,577,00008550,1671,McMurchy - Zum Steeles Station Stop WB,,43.661472,-79.738426,,,0,,,1
-8876558.19840093,5414330.00000963,578,00008581,3755,Charolais Blvd e/of Hodgson St,,43.668797,-79.739479,,,0,,,1
-8876809.55781114,5414130.3993198,579,00008582,3756,Charolais Blvd e/of Mill St,,43.667500,-79.741737,,,0,,,1
-8876961.62023556,5414375.70717389,580,00008590,1674,Mill St S at Campkin St,,43.669094,-79.743103,,,0,,,1
-8877173.12726807,5414756.76290813,581,00008600,1675,Mill St S at Elgin Dr,,43.671570,-79.745003,,,0,,,1
-8877421.14709356,5414617.63572922,582,00008610,1676,Elgin St opp Armbro Dr,,43.670666,-79.747231,,,0,,,1
-8877604.49029489,5414364.62662845,583,00008620,1677,Elgin St at McMurchy Ave S,,43.669022,-79.748878,,,0,,,1
-8877768.46390483,5414511.29103542,584,00008630,1678,McMurchy Ave S at Ambleside Dr,,43.669975,-79.750351,,,0,,,1
-8878169.32539118,5414918.20846709,585,00008640,1679,McMurchy Ave S opp Kingsview Blvd,,43.672619,-79.753952,,,0,,,1
-8878517.53275838,5415271.58247468,586,00008650,1680,McMurchy Ave S n/of Harold St,,43.674915,-79.757080,,,0,,,0
-8878762.10167965,5415524.61642072,587,00008660,1681,McMurchy Ave S n/of Frederick St,,43.676559,-79.759277,,,0,,,0
-8878998.21031963,5415763.0349187,588,00008670,1682,McMurchy Ave S opp McHardy Place,,43.678108,-79.761398,,,0,,,1
-8879304.89551676,5416074.88144359,589,00008680,1683,McMurchy Ave s/of Jessie St,,43.680134,-79.764153,,,0,,,1
-8879403.41326611,5416178.16561002,590,00008690,1684,McMurchy Ave S at Queen St W,,43.680805,-79.765038,,,0,,,0
-8879597.88841653,5416391.35640223,591,00008700,1685,McMurchy Ave N at Nelson St,,43.682190,-79.766785,,,0,,,1
-8879791.47301102,5416588.08122491,592,00008710,1686,McMurchy Ave N at Denison Ave,,43.683468,-79.768524,,,0,,,0
-8879966.46725055,5416807.1310877,593,00008720,1687,Railroad St e/of McMurchy Ave N,,43.684891,-79.770096,,,0,,,1
-8879926.50355335,5416905.80528136,594,00008730,1688,Railroad St at West St,,43.685532,-79.769737,,,0,,,0
-8879586.75646745,5417003.24900658,595,00008740,1689,Railroad St w/of Mill St,,43.686165,-79.766685,,,0,,,1
-8879549.46443804,5417029.72678414,596,00008770,1691,Railroad St e/of Mill St,,43.686337,-79.766350,,,0,,,1
-8879880.63992314,5416934.59186726,597,00008780,1692,Railroad St opp West St,,43.685719,-79.769325,,,0,,,0
-8879912.92257548,5416683.82831207,598,00008790,1693,McMurchy Ave N s/of Railroad St,,43.684090,-79.769615,,,0,,,1
-8879777.00147721,5416547.59682268,599,00008800,1694,McMurchy Ave N s/of Denison Ave,,43.683205,-79.768394,,,0,,,1
-8879661.56316526,5416428.91543437,600,00008805,1695,McMurchy Ave N at Nelson St W,,43.682434,-79.767357,,,0,,,1
-8879490.79906639,5416245.12392077,601,00008810,1696,McMurchy Ave N at Queen St W,,43.681240,-79.765823,,,0,,,0
-8879228.41902658,5415975.60043503,602,00008820,1697,McMurchy Ave S at Royce Ave,,43.679489,-79.763466,,,0,,,1
-8879023.70248302,5415750.10567512,603,00008830,1698,McMurchy Ave S at McHardy Place,,43.678024,-79.761627,,,0,,,1
-8878809.74642171,5415537.08360091,604,00008840,1699,McMurchy Ave S at Corby Cres,,43.676640,-79.759705,,,0,,,0
-8878473.33892053,5415191.85666998,605,00008850,1700,McMurchy Ave S s/of Harold St,,43.674397,-79.756683,,,0,,,1
-8878186.35727327,5414893.5836046,606,00008860,1701,McMurchy Ave S s/of Kingsview Blvd,,43.672459,-79.754105,,,0,,,1
-8877864.42130589,5414567.15647445,607,00008870,1702,McMurchy Ave S at Ambleside Dr,,43.670338,-79.751213,,,0,,,1
-8877572.31896206,5414366.31948871,608,00008880,1703,Elgin St at McMurchy Ave S,,43.669033,-79.748589,,,0,,,1
-8877413.46604869,5414584.08546208,609,00008890,1704,Elgin St at Armbro Ave,,43.670448,-79.747162,,,0,,,0
-8877251.27355061,5414771.38369574,610,00008900,1705,Elgin St at Mill St S,,43.671665,-79.745705,,,0,,,1
-8877163.77643085,5414717.97945733,611,00008910,1706,Mill St S at Grand Circuit Crt,,43.671318,-79.744919,,,0,,,1
-8876988.78219132,5414420.33728316,612,00008920,1707,Mill St S at Howell St,,43.669384,-79.743347,,,0,,,1
-8876753.56410727,5414162.10122298,613,00008930,1708,Charolais Blvd e/of Mill Street,,43.667706,-79.741234,,,0,,,1
-8876487.73316326,5414350.46817308,614,00008932,3758,Charolais Blvd w/of Main St,,43.668930,-79.738846,,,0,,,1
-8877006.59330984,5413705.35809693,615,00008940,1709,McMurchy Ave S s/of Charolais Blvd,,43.664738,-79.743507,,,0,,,1
-8876789.18634432,5413478.07217334,616,00008950,1710,McMurchy Ave S at Keystone Dr,,43.663261,-79.741554,,,0,,,1
-8876576.00951945,5413257.40859008,617,00008960,1711,McMurchy Ave S s/of Peelton Heights Rd,,43.661827,-79.739639,,,0,,,1
-8876635.45412754,5412965.04515418,618,00009000,1714,Steeles Ave W opp Bernard Ave,,43.659927,-79.740173,,,0,,,0
-8876832.48962624,5412217.86779943,619,00009020,1716,McLaughlin Rd S at Holland Christian Homes,,43.655071,-79.741943,,,0,,,1
-8876115.70342502,5414196.72721242,620,00009060,1721,Main St S at Bartley Bull Pky,,43.667931,-79.735504,,,0,,,1
-8876373.07408774,5414452.04018142,621,00009065,1722,Main St S at Charolais Blvd,,43.669590,-79.737816,,,0,,,1
-8876700.90998812,5414782.61863247,622,00009070,1723,Main St S n/of Peel Village Pky,,43.671738,-79.740761,,,0,,,1
-8876966.74093214,5415053.80029218,623,00009080,1724,Main St S at Elgin Dr,,43.673500,-79.743149,,,0,,,1
-8877513.6535904,5415633.28154479,624,00009090,1725,Nanwood - Zum Main Station Stop NB,,43.677265,-79.748062,,,0,,,1
-8877730.28131949,5415843.53525916,625,00009100,1726,Main St S btwn Nanwood Dr & Harold St,,43.678631,-79.750008,,,0,,,1
-8877961.26926289,5416079.03741607,626,00009110,1727,Main St S at Clarence St,,43.680161,-79.752083,,,0,,,1
-8878137.04273885,5416260.97848842,627,00009120,1728,Main St S n/of Guest St,,43.681343,-79.753662,,,0,,,1
-8878420.68480139,5416555.13953055,628,00009130,1729,Main St S n/of Woodbrook Dr (St. Mary Church),,43.683254,-79.756210,,,0,,,1
-8878592.22813671,5416731.3943563,629,00009140,1730,Wellington - Zum Main Station Stop NB,,43.684399,-79.757751,,,0,,,1
-8878855.61005192,5416994.9362316,630,00009150,1732,Main St N n/of Queen St E,,43.686111,-79.760117,,,0,,,1
-8879082.36785466,5417235.24002295,631,00009155,3773,Main St n/of Nelson St E,,43.687672,-79.762154,,,0,,,1
-8879044.96450576,5417192.28968711,632,00009160,1733,Theatre Lane - Zum Main Station Stop NB,,43.687393,-79.761818,,,0,,,1
-8879145.15204747,5417292.19955783,633,00009170,1734,Main St N at Church St,,43.688042,-79.762718,,,0,,,1
-8879297.99370833,5417451.84207258,634,00009180,1735,Main St N at Alexander St,,43.689079,-79.764091,,,0,,,1
-8879576.62639378,5417737.88156233,635,00009190,1736,Main St N at Sproule Dr,,43.690937,-79.766594,,,0,,,1
-8879849.24782674,5418025.62344467,636,00009195,1737,Vodden - Zum Main Station Stop NB,,43.692806,-79.769043,,,0,,,1
-8880107.39772589,5418292.28149854,637,00009210,1739,Main St N at English St,,43.694538,-79.771362,,,0,,,1
-8880357.08734374,5418549.55531551,638,00009220,1740,Main St N at Layham Gate,,43.696209,-79.773605,,,0,,,1
-8880703.62491858,5418912.460614,639,00009230,1741,Williams - Zum Main Station Stop NB,,43.698566,-79.776718,,,0,,,1
-8880577.94521347,5418771.57714311,640,00009235,1742,Main St N btwn Layham Gate & Williams Pky E,,43.697651,-79.775589,,,0,,,1
-8881043.37200448,5419253.20733942,641,00009250,1744,Main St N at Brickyard Way,,43.700779,-79.779770,,,0,,,1
-8881262.44876236,5419464.00544249,642,00009265,1746,Main St N btwn Brickyard Way & Quarry Edge Dr,,43.702148,-79.781738,,,0,,,1
-8881441.67314254,5419650.94073102,643,00009270,1747,Main St N at Quarry Edge Dr,,43.703362,-79.783348,,,0,,,1
-8881702.38338998,5419928.73294619,644,00009277,3668,Main St s/of Bovaird Dr,,43.705166,-79.785690,,,0,,,1
-8881912.22063012,5420147.24611148,645,00009280,1748,Bovaird - Zum Main Station Stop NB,,43.706585,-79.787575,,,0,,,1
-8882392.89819137,5420632.49010841,646,00009300,1750,Hurontario St at Wexford Rd,,43.709736,-79.791893,,,0,,,1
-8882802.21995901,5421050.76595762,647,00009310,1751,Hurontario St at Tremblay St,,43.712452,-79.795570,,,0,,,0
-8883181.04018619,5421447.34469737,648,00009320,1752,Hurontario St opp Fisherman Dr,,43.715027,-79.798973,,,0,,,1
-8883553.06992441,5421954.3742597,649,00009330,1753,Sandalwood Pkwy e/of Main St,,43.718319,-79.802315,,,0,,,1
-8883437.52029297,5422097.15462167,650,00009340,1754,Sandalwood Pky E btwn Hurontario St and Sunforest,,43.719246,-79.801277,,,0,,,1
-8883280.44849146,5422303.39682226,651,00009350,1755,Sandalwood Pky E at Sunforest Dr,,43.720585,-79.799866,,,0,,,1
-8883046.00964385,5422611.30544362,652,00009360,1756,Sandalwood Pky E at 95 Sandalwood (Firestation),,43.722584,-79.797760,,,0,,,1
-8883068.05090302,5423155.36920295,653,00009380,1758,Conestoga Dr opp Loafers Lake Lane,,43.726116,-79.797958,,,0,,,1
-8883074.06215553,5423432.80477724,654,00009390,1759,Heart Lake Terminal Route 2 Stop,,43.727917,-79.798012,,,0,place_HTLK,,1
-8882946.60133857,5423698.38667852,655,00009415,1760,Conestoga Dr opp Mondragon Circle,,43.729641,-79.796867,,,0,,,1
-8882662.95927603,5423389.20940668,656,00009420,1761,Sandalwood Pky E w/of Kennedy Rd N,,43.727634,-79.794319,,,0,,,1
-8882922.89028703,5423014.42095446,657,00009430,1762,Sandalwood Pky E w/of Conestoga Dr,,43.725201,-79.796654,,,0,,,1
-8883048.56999214,5422670.60868417,658,00009440,1763,Sandalwood Pky E opp 95 Sandalwood Pky E (Firestat,,43.722969,-79.797783,,,0,,,1
-8883269.42786187,5422371.01569418,659,00009450,1764,Sandalwood Pky E at Braidwood Lake Rd,,43.721024,-79.799767,,,0,,,1
-8883395.88680341,5422209.43975898,660,00009460,1765,Sandalwood Pky E w/of Braidwood Lake Rd,,43.719975,-79.800903,,,0,,,1
-8883615.85411722,5421930.80878127,661,00009470,1766,Sandalwood Pky E at Hurontario St,,43.718166,-79.802879,,,0,,,1
-8883593.81285804,5421798.65838966,662,00009475,1767,Sandalwood - Zum Main Station Stop SB,,43.717308,-79.802681,,,0,,,1
-8883262.63737293,5421460.89798066,663,00009480,1768,Hurontario St at Fisherman Dr,,43.715115,-79.799706,,,0,,,1
-8882801.44072258,5420996.70935975,664,00009490,1769,Hurontario St opp Tremblay St,,43.712101,-79.795563,,,0,,,1
-8882347.03456116,5420529.61809829,665,00009500,1770,Hurontario St s/of Wexford Rd,,43.709068,-79.791481,,,0,,,1
-8882107.58633646,5420278.29489559,666,00009510,1771,Hurontario St at 10086 Hurontario St (Stitches Out,,43.707436,-79.789330,,,0,,,0
-8881939.38258587,5420101.35637776,667,00009520,1772,Hurontario St at Bovaird Dr W,,43.706287,-79.787819,,,0,,,1
-8881736.33583467,5419897.01123939,668,00009530,1773,Bovaird - Zum Main Station Stop SB,,43.704960,-79.785995,,,0,,,1
-8881516.36852086,5419676.6561781,669,00009540,1774,Main St N at Gillingham Dr,,43.703529,-79.784019,,,0,,,1
-8881198.77401363,5419360.0685958,670,00009550,1775,Main St N btwn Gillingham Dr & Brickyard Way,,43.701473,-79.781166,,,0,,,1
-8880966.11627787,5419125.71454804,671,00009560,1776,Main St s/of Brickyard Way,,43.699951,-79.779076,,,0,,,1
-8880723.99638539,5418869.65644685,672,00009580,1778,Williams - Zum Main Station Stop SB,,43.698288,-79.776901,,,0,,,1
-8880424.21299669,5418577.11529374,673,00009590,1779,Main St N at Archibald St,,43.696388,-79.774208,,,0,,,1
-8880174.52337884,5418320.45655801,674,00009600,1780,Main St N at English St,,43.694721,-79.771965,,,0,,,1
-8879864.49859698,5417997.44928488,675,00009610,1781,Vodden - Zum Main Station Stop SB,,43.692623,-79.769180,,,0,,,1
-8879637.74079423,5417770.8274763,676,00009620,1782,Main St N at Rosedale Ave,,43.691151,-79.767143,,,0,,,1
-8879466.19745892,5417593.93700861,677,00009630,1783,Main St N s/of David St,,43.690002,-79.765602,,,0,,,1
-8879210.60790806,5417324.98993591,678,00009640,1784,Main St N at Church St,,43.688255,-79.763306,,,0,,,1
-8879064.44541665,5417180.58998867,679,00009650,1785,Nelson - Zum Main Station Stop SB,,43.687317,-79.761993,,,0,,,1
-8878869.97026623,5416979.0804038,680,00009660,1786,Main St N at Queen St W,,43.686008,-79.760246,,,0,,,1
-8878690.74588605,5416796.50943548,681,00009670,1787,Wellington - Zum Main Station Stop SB,,43.684822,-79.758636,,,0,,,1
-8878376.60228304,5416474.78691854,682,00009680,1788,Main St S opp Woodbrook Dr,,43.682732,-79.755814,,,0,,,1
-8878024.05345569,5416114.13236927,683,00009700,1790,Main St S at Clarence St,,43.680389,-79.752647,,,0,,,1
-8877720.03992634,5415797.05122935,684,00009715,1792,Main St S btwn Harold St & Nanwood Dr,,43.678329,-79.749916,,,0,,,1
-8877428.71681893,5415484.75234022,685,00009720,1793,Nanwood - Zum Main Station Stop SB,,43.676300,-79.747299,,,0,,,1
-8877036.31561389,5415069.65281486,686,00009730,1794,Main St S at Elgin Dr,,43.673603,-79.743774,,,0,,,1
-8876489.40295562,5414514.83070886,687,00009750,1796,Main St S at Charolais Blvd,,43.669998,-79.738861,,,0,,,1
-8876139.52579605,5414146.25025779,688,00009760,1797,Main St S at Bartley Bull Pkwy,,43.667603,-79.735718,,,0,,,1
-8875787.0882882,5413782.14722522,689,00009770,1799,Hurontario St s/of Steeles Ave (School Special),,43.665237,-79.732552,,,0,,,1
-8875178.05935407,5413160.00437552,690,00009780,1800,Sir Lou - Zum Main Station Stop SB,,43.661194,-79.727081,,,0,,,1
-8874811.15031242,5412775.47549187,691,00009785,1801,Ray Lawson - Zum Main Station Stop SB,,43.658695,-79.723785,,,0,,,1
-8874633.70704409,5412902.2651599,692,00009790,1802,County Court Blvd (S) e/of Hurontario St,,43.659519,-79.722191,,,0,,,1
-8874523.27810923,5413041.36650611,693,00009800,1803,County Court Blvd e/of Havelock Dr-School Special,,43.660423,-79.721199,,,0,,,1
-8874420.53021922,5413241.55917715,694,00009810,1804,County Court Blvd n/of Havelock Dr (E),,43.661724,-79.720276,,,0,,,0
-8874502.90664241,5413540.39443276,695,00009820,1805,County Court Blvd at Mossbank Dr,,43.663666,-79.721016,,,0,,,1
-8874806.14093533,5413659.50036481,696,00009830,1806,County Court Blvd at Seminole Dr,,43.664440,-79.723740,,,0,,,1
-8875075.31146407,5413420.67451374,697,00009840,1807,County Court Blvd at Turtlecreek Blvd,,43.662888,-79.726158,,,0,,,0
-8874353.40456627,5421336.91698304,698,00009867,3607,Clark Blvd w/of Peel Centre Dr,,43.714310,-79.719673,,,0,,,1
-8874168.28025308,5421530.20485414,699,00009875,3591,Clark Blvd w/of Central Park Dr,,43.715565,-79.718010,,,0,,,1
-8873599.21501615,5421980.25014846,700,00009880,1809,Clark Blvd opp Kings Cross Rd,,43.718487,-79.712898,,,0,,,1
-8873979.70503568,5421817.44888938,701,00009885,3592,Central Park Dr n/of Clark Blvd,,43.717430,-79.716316,,,0,,,1
-8873281.62050892,5422324.49878606,702,00009890,1810,Clark Blvd at Edenborough Dr,,43.720722,-79.710045,,,0,,,1
-8874029.79880654,5421800.35261347,703,00009895,3593,Central Park Dr s/of Knightsbridge Rd,,43.717319,-79.716766,,,0,,,1
-8873181.43296721,5422672.91920775,704,00009900,1811,Clark Blvd at Earnscliffe Gate,,43.722984,-79.709145,,,0,,,1
-8873090.48494322,5422958.50437695,705,00009910,1812,Clark Blvd e/of Esplanade Rd,,43.724838,-79.708328,,,0,,,1
-8873018.34991319,5423181.86463323,706,00009920,1813,Clark Blvd e/of Finchgate Blvd,,43.726288,-79.707680,,,0,,,1
-8872830.66525172,5423382.2772996,707,00009930,1814,Clark Blvd opp Folkstone Cres (W),,43.727589,-79.705994,,,0,,,1
-8872445.05453561,5423334.67697162,708,00009940,1815,Clark Blvd at Elrose Rd,,43.727280,-79.702530,,,0,,,1
-8872238.66819968,5423196.49876977,709,00009950,1816,Clark Blvd at Eastbourne Dr,,43.726383,-79.700676,,,0,,,1
-8871924.41327716,5423311.10796807,710,00009960,1817,Clark Blvd at Torbram Rd,,43.727127,-79.697853,,,0,,,1
-8871707.00631164,5423534.47675982,711,00009970,1818,Clark Blvd e/of Torbram Rd,,43.728577,-79.695900,,,0,,,0
-8871540.58367291,5423869.38603165,712,00009980,1819,Summerlea Rd n/of Clark Blvd,,43.730751,-79.694405,,,0,,,1
-8871717.2477048,5424049.16985015,713,00009990,1820,Summerlea Rd at Colony Crt,,43.731918,-79.695992,,,0,,,1
-8871989.86913775,5424326.01605115,714,00010000,1821,Summerlea Rd n/of RRX,,43.733715,-79.698441,,,0,,,1
-8872244.56813269,5424587.00165714,715,00010010,1822,Summerlea Rd n/of Imperial Gate,,43.735409,-79.700729,,,0,,,1
-8872007.68025628,5424984.34870137,716,00010020,1823,Walker Dr e/of Gateway Blvd,,43.737988,-79.698601,,,0,,,1
-8871903.15125443,5425108.84094335,717,00010030,1824,Walker Dr e/of Gateway Blvd,,43.738796,-79.697662,,,0,,,1
-8871645.00135528,5425038.89088774,718,00010040,1825,Walker Dr s/of Coventry Rd,,43.738342,-79.695343,,,0,,,1
-8871377.5006189,5424765.56690095,719,00010050,1826,Walker Dr at Shaftsbury  Lane,,43.736568,-79.692940,,,0,,,1
-8871188.9254015,5424572.21124836,720,00010060,1827,Walker Dr opp Indell Lane,,43.735313,-79.691246,,,0,,,1
-8871013.15192554,5424390.72253788,721,00010065,1828,Walker Dr at Clark Blvd,,43.734135,-79.689667,,,0,,,1
-8870681.0858845,5424544.63336199,722,00010070,1829,Clark Blvd at Airport Rd,,43.735134,-79.686684,,,0,,,1
-8870446.64703689,5424778.50877856,723,00010080,1830,Clark Blvd at Devon Rd,,43.736652,-79.684578,,,0,,,1
-8870175.69539629,5424537.5463207,724,00010100,1831,Devon Rd at 74 Devon Rd,,43.735088,-79.682144,,,0,,,0
-8862475.05830118,5416359.64684648,725,00010101,6082,Pearson Int Airport Terminal 1 Ground Level,,43.681984,-79.612968,,,0,,,1
-8869878.47235588,5424230.80590293,726,00010110,1833,Devon Rd at 50 Devon Rd,,43.733097,-79.679474,,,0,,,0
-8869692.45748676,5424024.52061897,727,00010120,1834,Devon Rd at Intermodal Dr,,43.731758,-79.677803,,,0,,,0
-8869802.88642163,5423936.400156,728,00010125,1835,Intermodal - Zum Bovaird Station Stop NB,,43.731186,-79.678795,,,0,,,1
-8869824.9276808,5423884.63747923,729,00010130,1836,Woodslea - Zum Bovaird Station Stop SB,,43.730850,-79.678993,,,0,,,1
-8869860.66123735,5423810.07508623,730,00010135,1837,Woodslea Rd w/of Airport Road,,43.730366,-79.679314,,,0,,,0
-8870065.26646142,5423602.56680483,731,00010140,1838,Woodslea Rd at Walker Dr,,43.729019,-79.681152,,,0,,,0
-8869924.33598608,5423281.22317432,732,00010150,1839,Walker Dr at Flachsmann Whse,,43.726933,-79.679886,,,0,,,1
-8869767.15286508,5423104.22707594,733,00010160,1840,Walker Dr opp Humpty Dumpty Whse,,43.725784,-79.678474,,,0,,,0
-8869775.72446588,5422826.9554179,734,00010170,1841,Walker Dr at 80 Walker Dr,,43.723984,-79.678551,,,0,,,1
-8869810.56746649,5422554.92920986,735,00010180,1842,Walker Dr at 78 Walker Dr,,43.722218,-79.678864,,,0,,,0
-8869983.78059417,5422279.21433914,736,00010190,1843,Summerlea Rd n/of Walker Dr,,43.720428,-79.680420,,,0,,,0
-8870215.65909349,5422518.42347172,737,00010200,1844,Summerlea Rd at 75 Summerlea Rd,,43.721981,-79.682503,,,0,,,0
-8870433.06605901,5422743.46747286,738,00010210,1845,Summerlea Rd at 99 Summerlea Rd,,43.723442,-79.684456,,,0,,,0
-8870684.42546922,5422999.6330663,739,00010230,1847,Summerlea Rd n/of Trojan Crt,,43.725105,-79.686714,,,0,,,0
-8871053.00430323,5423372.26426522,740,00010240,1848,Summerlea Rd at Atlas Crt,,43.727524,-79.690025,,,0,,,0
-8871290.89405506,5423616.73945656,741,00010250,1849,Summerlea Rd at Barton Crt,,43.729111,-79.692162,,,0,,,0
-8871875.21006224,5423405.69243776,742,00010260,1850,Clark Blvd at Torbram Rd,,43.727741,-79.697411,,,0,,,0
-8871701.10637863,5423579.61331723,743,00010265,1851,Clark Blvd btwn Summerlea and Torbram Rd,,43.728870,-79.695847,,,0,,,0
-8872168.98219844,5423218.83512819,744,00010270,1852,Clark Blvd opp Eastbourne Dr,,43.726528,-79.700050,,,0,,,1
-8872434.03390602,5423357.47580356,745,00010280,1853,Clark Blvd w/of Folkstone Cres (E),,43.727428,-79.702431,,,0,,,1
-8872783.91106558,5423425.10239997,746,00010290,1854,Clark Blvd e/of Folkstone Cres,,43.727867,-79.705574,,,0,,,1
-8873048.85145367,5423170.61947038,747,00010300,1855,Clark Blvd at Finchgate Blvd,,43.726215,-79.707954,,,0,,,1
-8873110.0771736,5422979.7618789,748,00010310,1856,Clark Blvd opp Esplanade Rd,,43.724976,-79.708504,,,0,,,1
-8873186.44234429,5422742.85132847,749,00010320,1857,Clark Blvd opp Earnscliffe Gate,,43.723438,-79.709190,,,0,,,1
-8873274.83001998,5422413.21997926,750,00010330,1858,Clark Blvd at Fleetwood Cres,,43.721298,-79.709984,,,0,,,1
-8873384.36839892,5422226.99887517,751,00010340,1859,Clark Blvd at Bramalea Rd,,43.720089,-79.710968,,,0,,,1
-8873569.49271211,5422056.02995435,752,00010350,1860,Clark Blvd at Kings Cross Rd,,43.718979,-79.712631,,,0,,,1
-8873854.02533058,5421759.84534744,753,00010360,1861,Clark Blvd at Central Park Dr,,43.717056,-79.715187,,,0,,,1
-8875816.81059224,5429108.27776808,754,00010400,1865,Mountainberry Rd e/of Snowcap Rd,,43.764748,-79.732819,,,0,,,1
-8875538.17790679,5429313.44361529,755,00010420,1866,Mountainberry Rd at Snow Leopard Crt (N),,43.766079,-79.730316,,,0,,,1
-8875144.10690938,5429052.94080434,756,00010440,1868,Mountainberry Rd btwn Snow Leopard & Narrow Valley,,43.764389,-79.726776,,,0,,,0
-8875210.3420064,5428629.52383131,757,00010450,1869,Mountainberry Rd opp Mount Rainer Cres (W),,43.761642,-79.727371,,,0,,,0
-8875578.92084042,5428535.50231434,758,00010460,1870,Mountainberry Rd at Snowcap Rd,,43.761032,-79.730682,,,0,,,0
-8875843.972548,5428424.3732001,759,00010470,1871,Peter Robertson Blvd w/of Mountainash Rd,,43.760311,-79.733063,,,0,,,1
-8876087.65091334,5428140.46828454,760,00010480,1872,Peter Robertson Blvd at Eagleridge Dr,,43.758469,-79.735252,,,0,,,1
-8876352.70262092,5427816.50060551,761,00010490,1873,Peter Robertson Blvd w/of Torbram Rd,,43.756367,-79.737633,,,0,,,1
-8876604.06203113,5427518.43573317,762,00010500,1874,Peter Robertson Blvd at Barley Field Rd,,43.754433,-79.739891,,,0,,,1
-8876832.48962624,5427163.35964773,763,00010510,1875,Peter Robertson Blvd at Sunny Meadow Blvd,,43.752129,-79.741943,,,0,,,1
-8876971.86162871,5427248.58282598,764,00010520,1876,Sunny Meadow Blvd opp Oatfield Rd,,43.752682,-79.743195,,,0,,,1
-8877196.83831961,5427474.82105047,765,00010530,1877,Sunny Meadow Blvd at Red Clover Rd,,43.754150,-79.745216,,,0,,,1
-8877348.0101881,5427631.24922607,766,00010540,1878,Sunny Meadow Blvd at Red River Rd,,43.755165,-79.746574,,,0,,,1
-8878117.56182796,5426759.44639776,767,00010580,1882,Black Forest Dr at Sprucelands Ave,,43.749508,-79.753487,,,0,,,1
-8878261.05265159,5426511.96002863,768,00010590,1883,Black Forest Dr opp Willow Park Dr,,43.747902,-79.754776,,,0,,,1
-8878387.62291262,5426286.82408721,769,00010593,1884,Black Forest Dr opp Bunchberry Way,,43.746441,-79.755913,,,0,,,1
-8878343.42907478,5425878.78882912,770,00010595,1885,Fernforest Dr s/of Black Forest Dr (at Bobcat St),,43.743793,-79.755516,,,0,,,1
-8878203.27783587,5425389.8791121,771,00010600,1886,Peter Robertson Blvd w/of Fernforest Dr,,43.740620,-79.754257,,,0,,,0
-8878584.65841133,5425348.12344791,772,00010610,1887,Peter Robertson Blvd w/of Hickroybush Ave,,43.740349,-79.757683,,,0,,,1
-8878811.41621407,5425190.50137092,773,00010620,1888,Peter Robertson Blvd at Dixie Rd,,43.739326,-79.759720,,,0,,,1
-8879027.15338723,5424900.84123292,774,00010630,1889,Guru Nanak St e/of Canada Goose Blvd,,43.737446,-79.761658,,,0,,,1
-8879148.60295169,5424726.89544624,775,00010640,1890,Guru Nanak St e/of Blue Whale Blvd,,43.736317,-79.762749,,,0,,,1
-8879270.05251614,5424410.1345724,776,00010650,1891,Guru Nanak St opp Riverbank Rd,,43.734261,-79.763840,,,0,,,1
-8879254.69042641,5424382.40310703,777,00010680,1892,Guru Nanak St w/of Riverbank Rd,,43.734081,-79.763702,,,0,,,1
-8879170.64421086,5424600.55955268,778,00010690,1893,Guru Nanak St w/of Rainstorm Rd,,43.735497,-79.762947,,,0,,,0
-8879055.09457942,5424825.03805997,779,00010700,1894,Guru Nanak St opp Canada Goose Blvd,,43.736954,-79.761909,,,0,,,1
-8878892.1228449,5425027.18123862,780,00010705,1895,Guru Nanak St w/of Dixie Rd,,43.738266,-79.760445,,,0,,,1
-8878546.36450649,5425329.94207387,781,00010710,1896,Peter Robertson Blvd at Softneedle Ave,,43.740231,-79.757339,,,0,,,1
-8878249.14146608,5425352.74583687,782,00010720,1897,Peter Robertson Blvd at Fernforest Dr,,43.740379,-79.754669,,,0,,,0
-8878163.42545817,5425457.36652615,783,00010730,1898,Fernforest Dr at Kimberly Cres (S),,43.741058,-79.753899,,,0,,,1
-8878338.3083782,5425901.13168242,784,00010740,1899,Fernforest Dr at Hackberry Gate,,43.743938,-79.755470,,,0,,,1
-8878340.08949005,5426319.18415131,785,00010750,1900,Black Forest Dr e/of Bunchberry Way,,43.746651,-79.755486,,,0,,,0
-8878227.87944333,5426563.12104987,786,00010760,1901,Black Forest Dr e/of Willow Park Dr,,43.748234,-79.754478,,,0,,,0
-8878103.98085008,5426744.19019665,787,00010770,1902,Black Forest Dr e/of Winterberry Gate,,43.749409,-79.753365,,,0,,,0
-8878006.24233717,5426864.69946273,788,00010780,1903,Black Forest Dr at Bramalea Rd,,43.750191,-79.752487,,,0,,,0
-8877344.67060338,5427603.04572347,789,00010820,1907,Sunny Meadow Blvd s/of Larkspur Rd,,43.754982,-79.746544,,,0,,,1
-8877234.24166851,5427487.76672982,790,00010830,1908,Sunny Meadow Blvd at Squirreltail Way,,43.754234,-79.745552,,,0,,,1
-8877067.81902978,5427316.08384069,791,00010840,1909,Sunny Meadow Blvd at Oatfield Rd,,43.753120,-79.744057,,,0,,,1
-8876891.15499789,5427129.14730945,792,00010845,1910,Sunny Meadow Blvd at Peter Robertson Blvd,,43.751907,-79.742470,,,0,,,1
-8876758.68480385,5427214.37017157,793,00010850,1911,Peter Robertson Blvd at Giraffe Ave (W),,43.752460,-79.741280,,,0,,,1
-8876754.3433437,5426895.82871063,794,00010855,1912,Sunny Meadow Blvd opp Thunderbird Trail,,43.750393,-79.741241,,,0,,,1
-8876820.68976022,5426501.3272014,795,00010857,4060,Brampton Civic Hospital 12 SB / 35,,43.747833,-79.741837,,,0,,,1
-8876816.34830008,5426507.1829598,796,00010858,4061,Brampton Civic Hospital 12NB,,43.747871,-79.741798,,,0,,,1
-8876653.37656556,5427423.80908611,797,00010860,1913,Peter Robertson Blvd w/of Clover Bloom Rd,,43.753819,-79.740334,,,0,,,1
-8876309.39933901,5427815.8841222,798,00010870,1914,Peter Robertson Blvd at Torbram Rd,,43.756363,-79.737244,,,0,,,1
-8876148.87663328,5428017.01398768,799,00010875,1915,Peter Robertson Blvd at Red Stag Rd,,43.757668,-79.735802,,,0,,,1
-8875781.96759162,5428432.69627737,800,00010885,1917,Peter Robertson Blvd at Mountainash Rd,,43.760365,-79.732506,,,0,,,1
-8878991.41983069,5429241.76607245,801,00010915,4057,Sunny Meadow Blvd s/of Father Tobin Rd,,43.765614,-79.761337,,,0,,,1
-8878998.21031963,5429273.51992591,802,00010918,4056,Sunny Meadow Blvd s/of Father Tobin Rd,,43.765820,-79.761398,,,0,,,1
-8878842.80831048,5429090.55140649,803,00010924,4055,Sunny Meadow Blvd n/of Sparhill St,,43.764633,-79.760002,,,0,,,1
-8878785.03349476,5429056.48605946,804,00010925,4054,Sunny Meadow Blvd btwn Vanderbrink Dr & Serenes,,43.764412,-79.759483,,,0,,,1
-8878648.33316006,5428917.14314474,805,00010929,4053,Sunny Meadow Blvd n/of Australia Dr,,43.763508,-79.758255,,,0,,,1
-8878593.11869263,5428831.28799456,806,00010930,1921,Sunny Meadow Blvd at Australia Dr,,43.762951,-79.757759,,,0,,,1
-8878548.92485478,5428496.19852171,807,00010931,4052,Sunny Meadow Blvd at Stanley Mills Public School,,43.760777,-79.757362,,,0,,,1
-8878509.07247708,5428686.091337,808,00010934,4051,Sunny Meadow Blvd s/of Chapparal Dr,,43.762009,-79.757004,,,0,,,1
-8878514.97241009,5428266.85267244,809,00010938,4050,Sunny Meadow n/of Black Cherry Ln,,43.759289,-79.757057,,,0,,,1
-8878533.67408454,5428244.50408754,810,00010940,1922,Sunny Meadow Blvd opp Black Cherry Lane,,43.759144,-79.757225,,,0,,,1
-8878270.40348882,5427987.57631572,811,00010950,1923,Sunny Meadow Blvd n/of Sandalwood Pkwy,,43.757477,-79.754860,,,0,,,1
-8878285.65425906,5428015.16449767,812,00010952,4049,Sunny Meadow Blvd n/of Sandalwood Pky,,43.757656,-79.754997,,,0,,,1
-8878631.30127797,5427398.99672205,813,00010960,1924,Sandalwood Pkwy w/of Bramalea Rd,,43.753658,-79.758102,,,0,,,1
-8878796.94468027,5427261.99052246,814,00010970,1925,Sandalwood Pky E at Rattlesnake Rd,,43.752769,-79.759590,,,0,,,1
-8879062.77562428,5427038.68556694,815,00010975,1926,Sandalwood Pky E btwn Rattlesnake and Fernforest,,43.751320,-79.761978,,,0,,,1
-8879236.87930789,5426876.41144467,816,00010980,1927,Sandalwood Pky E at Fernforest Dr,,43.750267,-79.763542,,,0,,,1
-8879511.1705332,5426550.17666828,817,00010990,1928,Sandalwood Pky E btwn Fernforest Dr & Dixie Rd,,43.748150,-79.766006,,,0,,,1
-8879681.93463207,5426318.56776808,818,00011000,1929,Sandalwood Pky E opp Springtown Trail,,43.746647,-79.767540,,,0,,,1
-8879913.8131314,5426045.2058636,819,00011010,1930,Sandalwood Pky E w/of Dixie Rd,,43.744873,-79.769623,,,0,,,1
-8880145.69163072,5425811.91468128,820,00011020,1931,Sandalwood Pky btwn Dixie Rd and Great Lakes Dr,,43.743359,-79.771706,,,0,,,1
-8879226.74923423,5423975.68452416,821,00011060,1933,Trinity Common Terminal Route 32/23 WB/18B Stop,,43.731441,-79.763451,,,0,place_SPTE,,1
-8881224.26617702,5424680.36665981,822,00011100,1934,Sandalwood Pky E w/of Heart Lake Rd,,43.736015,-79.781395,,,0,,,1
-8881668.43094528,5424338.95731219,823,00011110,1935,Sandalwood Pky E at Royal Palm Dr (E),,43.733799,-79.785385,,,0,,,1
-8881972.44447464,5423998.63899709,824,00011120,1936,Sandalwood Pky E at Royal Palm Dr (W),,43.731590,-79.788116,,,0,,,1
-8882183.95150715,5423797.13456698,825,00011130,1937,Sandalwood Pky E at Richvale Dr (WB),,43.730282,-79.790016,,,0,,,1
-8882538.17012685,5423513.83417575,826,00011140,1938,Sandalwood Pky E at Kennedy Rd N,,43.728443,-79.793198,,,0,,,0
-8882731.75472134,5423673.73838444,827,00011150,1939,Kennedy Rd N n/of Sandalwood Pky E,,43.729481,-79.794937,,,0,,,1
-8882961.9634283,5423725.34582556,828,00011160,1940,Conestoga Dr at Mondragon Circle,,43.729816,-79.797005,,,0,,,0
-8883110.57494851,5423412.77860971,829,00011170,1941,Heart Lake Terminal Route 23 WB Stop,,43.727787,-79.798340,,,0,place_HTLK,,1
-8883142.85760084,5423163.07135507,830,00011180,1942,Conestoga Dr at Loafers Lake Lane,,43.726166,-79.798630,,,0,,,1
-8883785.72766017,5421712.25338749,831,00011240,1943,Sandalwood Pky W w/of Hurontario St,,43.716747,-79.804405,,,0,,,1
-8884094.8618861,5421326.29011788,832,00011250,1944,Sandalwood Pkwy at 130 Sandalwood Pkwy,,43.714241,-79.807182,,,0,,,1
-8884443.95980923,5420680.69250761,833,00011260,1945,Sandalwood Pky W at Van Kirk Dr,,43.710049,-79.810318,,,0,,,1
-8884841.48171085,5419702.52568217,834,00011290,1947,Queen Mary Dr at Gold Park Place,,43.703697,-79.813889,,,0,,,1
-8884482.14239458,5419413.03774626,835,00011300,1948,Queen Mary Dr s/of Woodvalley Dr,,43.701817,-79.810661,,,0,,,1
-8884246.0337546,5419261.98408186,836,00011305,1949,Queen Mary Dr s/of Whispering Hills Gate,,43.700836,-79.808540,,,0,,,0
-8883946.2503659,5419082.29349204,837,00011310,1950,Queen Mary Dr s/of Lormel Gate,,43.699669,-79.805847,,,0,,,0
-8883810.32926764,5418646.40051859,838,00011320,1951,Queen Mary Dr s/of Sunnybrook Cres (S),,43.696838,-79.804626,,,0,,,1
-8883856.19289784,5418435.62108305,839,00011330,1952,Queen Mary Dr at Briarcroft Rd (E),,43.695469,-79.805038,,,0,,,1
-8884165.43844327,5418344.6286721,840,00011350,1954,Edenbrook Hill Dr at Briarcroft Rd (W),,43.694878,-79.807816,,,0,,,1
-8884439.72966858,5418376.34504517,841,00011351,1955,Edenbrook Hill Dr n/of Packham Cr,,43.695084,-79.810280,,,0,,,1
-8884782.81633921,5418450.24769639,842,00011360,1956,Edenbrook Hill Dr s/of Duffield Rd,,43.695564,-79.813362,,,0,,,1
-8884989.20267514,5418610.68007106,843,00011365,1957,Edenbrook Hill Dr btwn Amboise Cres & Bonistel Cr,,43.696606,-79.815216,,,0,,,1
-8885757.86375907,5416980.92768331,844,00011405,1962,Worthington Ave s/of Fairhill Ave,,43.686020,-79.822121,,,0,,,1
-8885632.9632904,5416854.0820156,845,00011410,1963,Worthington Ave at Gabrielle Dr,,43.685196,-79.820999,,,0,,,1
-8885416.4468808,5416630.87481641,846,00011420,1964,Worthington Ave at Clayborne Ave,,43.683746,-79.819054,,,0,,,0
-8885084.38083977,5416256.36065037,847,00011430,1965,Worthington Ave at Salvation Rd,,43.681313,-79.816071,,,0,,,1
-8885792.59544019,5415206.47814633,848,00011440,1966,Mount Pleasant GO Station  Route 9 Stop,,43.674492,-79.822433,,,0,place_MPGO,,1
-8885096.18070579,5416300.38413369,849,00011460,1967,Worthington Ave n/of Creditview Rd (n/of Bovaird),,43.681599,-79.816177,,,0,,,1
-8885376.4831836,5416613.94207664,850,00011470,1968,Worthington Ave opp Clayborne Ave,,43.683636,-79.818695,,,0,,,0
-8885545.46617063,5416788.35078338,851,00011480,1969,Worthington Ave opp Gabrielle Dr,,43.684769,-79.820213,,,0,,,1
-8885759.53355142,5417006.78963522,852,00011485,1970,Worthington Ave at Fairhill Ave,,43.686188,-79.822136,,,0,,,1
-8886044.0661699,5417549.44550964,853,00011510,1973,Brisdale Dr s/of Sandy Beach Rd,,43.689713,-79.824692,,,0,,,1
-8886361.66067713,5417874.13061359,854,00011520,1974,Brisdale Dr n/of Wetmeadow Dr,,43.691822,-79.827545,,,0,,,1
-8886584.18833922,5418090.9016097,855,00011530,1975,Brisdale Dr at Sandalwood Pky W,,43.693230,-79.829544,,,0,,,1
-8886754.06188217,5418260.56541424,856,00011540,1976,Brisdale Dr at Ranchero Dr opp St. Edmund Campion,,43.694332,-79.831070,,,0,,,1
-8887023.23241091,5418531.38733016,857,00011550,1977,Brisdale Dr at Ramsey Lane,,43.696091,-79.833488,,,0,,,1
-8887144.68197537,5418747.55788062,858,00011560,1978,Botavia Downs Dr e/of Brisdale Dr,,43.697495,-79.834579,,,0,,,1
-8886841.55900194,5419003.6125953,859,00011570,1979,Botavia Downs Dr at Trumpet Valley Blvd,,43.699158,-79.831856,,,0,,,0
-8886477.21030857,5419443.5259416,860,00011583,3601,Earlsbridge Blvd e/of Chinguacousy Rd - School,,43.702015,-79.828583,,,0,,,1
-8886308.22732154,5419738.40434056,861,00011590,1981,Earlsbridge Blvd at Edenbrook Hill Dr,,43.703930,-79.827065,,,0,,,0
-8884990.09323106,5419736.09455149,862,00011630,1986,Sandalwood Pky W at Queen Mary Dr,,43.703915,-79.815224,,,0,,,1
-8884641.88586386,5420106.74609977,863,00011640,1987,Sandalwood Pky W at McLaughlin Rd N,,43.706322,-79.812096,,,0,,,1
-8884410.00736454,5420563.80597445,864,00011650,1988,Sandalwood Pky W at Van Kirk Dr,,43.709290,-79.810013,,,0,,,1
-8884069.36972271,5421290.40528682,865,00011660,1989,Sandalwood Pkwy opp 130 Sandalwood Pkwy,,43.714008,-79.806953,,,0,,,1
-8883707.58137764,5421758.7672097,866,00011670,1990,Sandalwood Pky W at Hurontario St,,43.717049,-79.803703,,,0,,,1
-8883088.42236985,5423412.16242063,867,00011730,1991,Heart Lake Terminal Route 21 Stop,,43.727783,-79.798141,,,0,place_HTLK,,1
-8882210.33422646,5423706.08928392,868,00011750,1992,Sandalwood Pky E at Richvale Dr (EB),,43.729691,-79.790253,,,0,,,1
