RT_NM,STP_NM,RT_STP_NUM,RT_NUM_STPS,X,Y,OBJECTID,stop_id,stop_code,stop_name,stop_desc,zone_id,stop_url,location_type,parent_station,stop_timezone,wheelchair_boarding,stop_lat,stop_lon
501-zum-queen-eastbound-hwy-7-at-eb-vaughan-metrop,Downtown Terminal Zum Queen Stop,1,30,-8879117.2109,5417111.7776,2156.0,00050100,4020.0,Downtown Terminal Zum Queen Stop,,,,0.0,place_4CRN,,1.0,43.68687,-79.762467
501-zum-queen-eastbound-hwy-7-at-eb-vaughan-metrop,Centre - Zum Queen Station Stop EB,2,30,-8878216.1909,5417740.3448,2157.0,00050102,4021.0,Centre - Zum Queen Station Stop EB,,,,0.0,,,1.0,43.690953,-79.754373
501-zum-queen-eastbound-hwy-7-at-eb-vaughan-metrop,Kennedy - Zum Queen Station Stop EB,3,30,-8877602.8205,5418512.2956,2158.0,00050104,4022.0,Kennedy - Zum Queen Station Stop EB,,,,0.0,,,1.0,43.695967,-79.748863
501-zum-queen-eastbound-hwy-7-at-eb-vaughan-metrop,Rutherford - Zum Queen Station Stop EB,4,30,-8876908.2982,5419356.989,2159.0,00050106,4023.0,Rutherford - Zum Queen Station Stop EB,,,,0.0,,,1.0,43.701453,-79.742624
501-zum-queen-eastbound-hwy-7-at-eb-vaughan-metrop,West - Zum Queen Station Stop EB,5,30,-8875916.8868,5420586.752,2160.0,00050108,4024.0,West - Zum Queen Station Stop EB,,,,0.0,,,1.0,43.709439,-79.733718
501-zum-queen-eastbound-hwy-7-at-eb-vaughan-metrop,Dixie - Zum Queen Station Stop EB,6,30,-8875187.0762,5421502.02,2161.0,00050110,4025.0,Dixie - Zum Queen Station Stop EB,,,,0.0,,,1.0,43.715382,-79.727162
501-zum-queen-eastbound-hwy-7-at-eb-vaughan-metrop,Bramalea Terminal- Zum Queen 501/501C EB-Departure,7,30,-8874470.7353,5422041.8597,2186.0,00050198,4003.0,Bramalea Terminal- Zum Queen 501/501C EB-Departure,,,,0.0,place_CITY,,1.0,43.718887,-79.720727
501-zum-queen-eastbound-hwy-7-at-eb-vaughan-metrop,Bramalea - Zum Queen Station Stop EB,8,30,-8874008.6481,5422979.1457,2162.0,00050112,4026.0,Bramalea - Zum Queen Station Stop EB,,,,0.0,,,1.0,43.724972,-79.716576
501-zum-queen-eastbound-hwy-7-at-eb-vaughan-metrop,Finchgate - Zum Queen Station Stop EB,9,30,-8873562.1456,5423530.7796,2163.0,00050114,4027.0,Finchgate - Zum Queen Station Stop EB,,,,0.0,,,1.0,43.728553,-79.712565
501-zum-queen-eastbound-hwy-7-at-eb-vaughan-metrop,Torbram - Zum Queen Station Stop EB,10,30,-8872819.088,5424452.8104,2164.0,00050116,4028.0,Torbram - Zum Queen Station Stop EB,,,,0.0,,,1.0,43.734538,-79.70589
501-zum-queen-eastbound-hwy-7-at-eb-vaughan-metrop,Gateway - Zum Queen Station Stop EB,11,30,-8872327.9464,5425044.7457,2165.0,00050118,4029.0,Gateway - Zum Queen Station Stop EB,,,,0.0,,,1.0,43.73838,-79.701478
501-zum-queen-eastbound-hwy-7-at-eb-vaughan-metrop,Airport Road - Zum Queen Station Stop EB,12,30,-8871613.2753,5425894.1977,2166.0,00050120,4030.0,Airport Road - Zum Queen Station Stop EB,,,,0.0,,,1.0,43.743893,-79.695058
501-zum-queen-eastbound-hwy-7-at-eb-vaughan-metrop,Goreway - Zum Queen Station Stop EB,13,30,-8870339.335,5427387.9005,2167.0,00050122,4031.0,Goreway - Zum Queen Station Stop EB,,,,0.0,,,1.0,43.753586,-79.683614
501-zum-queen-eastbound-hwy-7-at-eb-vaughan-metrop,McVean - Zum Queen Station Stop EB,14,30,-8869076.0815,5428657.8846,2168.0,00050124,4032.0,McVean - Zum Queen Station Stop EB,,,,0.0,,,1.0,43.761826,-79.672266
501-zum-queen-eastbound-hwy-7-at-eb-vaughan-metrop,The Gore Road - Zum Queen Station Stop EB,15,30,-8867123.315,5429291.5549,2169.0,00050126,4033.0,The Gore Road - Zum Queen Station Stop EB,,,,0.0,,,1.0,43.765937,-79.654724
501-zum-queen-eastbound-hwy-7-at-eb-vaughan-metrop,Highway 50 - Zum Queen Stop EB,16,30,-8866298.3262,5429473.9108,2170.0,00050128,4034.0,Highway 50 - Zum Queen Stop EB,,,,0.0,,,1.0,43.76712,-79.647313
501-zum-queen-eastbound-hwy-7-at-eb-vaughan-metrop,Keele St n/of Snidercroft Rd (Drop-Off Only),17,30,-8849556.988,5432895.2557,2705.0,19030403,8087.0,Keele St n/of Snidercroft Rd (Drop-Off Only),,,,0.0,,,1.0,43.789311,-79.496923
501-zum-queen-eastbound-hwy-7-at-eb-vaughan-metrop,York University - 501C - Zum Station Stop WB,18,30,-8849960.9664,5430923.1751,2062.0,00045100,8501.0,York University - 501C - Zum Station Stop WB,,,,0.0,place_YORKU,,1.0,43.776521,-79.500552
501-zum-queen-eastbound-hwy-7-at-eb-vaughan-metrop,Hwy 7 w/of Roybridge Gate,19,30,-8863927.2211,5430193.3501,1501.0,00020370,7018.0,Hwy 7 w/of Roybridge Gate,,,,0.0,,,1.0,43.771787,-79.626013
501-zum-queen-eastbound-hwy-7-at-eb-vaughan-metrop,Hwy 7 e/of Hwy 27,20,30,-8863025.5332,5430520.0221,1502.0,00020390,7019.0,Hwy 7 e/of Hwy 27,,,,0.0,,,1.0,43.773906,-79.617913
501-zum-queen-eastbound-hwy-7-at-eb-vaughan-metrop,Hwy 7 e/of Hwy 27,20,30,-8863293.9245,5430466.2184,1519.0,00021060,7084.0,Hwy 7 e/of Hwy 27,,,,0.0,,,1.0,43.773557,-79.620324
501-zum-queen-eastbound-hwy-7-at-eb-vaughan-metrop,Hwy 7 e/of Martin Grove Rd,21,30,-8861995.3826,5430830.6719,1503.0,00020400,7021.0,Hwy 7 e/of Martin Grove Rd,,,,0.0,,,1.0,43.775921,-79.608659
501-zum-queen-eastbound-hwy-7-at-eb-vaughan-metrop,Hwy 7 at Kipling Ave,22,30,-8860753.3911,5431226.1296,1504.0,00020420,7023.0,Hwy 7 at Kipling Ave,,,,0.0,,,1.0,43.778486,-79.597502
501-zum-queen-eastbound-hwy-7-at-eb-vaughan-metrop,Hwy 7 at Islington Ave,23,30,-8859868.5124,5431531.7151,1505.0,00020430,7024.0,Hwy 7 at Islington Ave,,,,0.0,,,1.0,43.780468,-79.589553
501-zum-queen-eastbound-hwy-7-at-eb-vaughan-metrop,Hwy 7 at Islington Ave,23,30,-8859944.321,5431544.0498,1516.0,00021010,7079.0,Hwy 7 at Islington Ave,,,,0.0,,,1.0,43.780548,-79.590234
501-zum-queen-eastbound-hwy-7-at-eb-vaughan-metrop,Hwy 7 at (EB) Helen Station,24,30,-8858678.841,5431897.4443,1506.0,00020450,7026.0,Hwy 7 at (EB) Helen Station,,,,0.0,,,1.0,43.78284,-79.578866
501-zum-queen-eastbound-hwy-7-at-eb-vaughan-metrop,Hwy 7 at (EB) Pine Valley Station,25,30,-8857936.674,5432107.1438,1507.0,00020460,7027.0,Hwy 7 at (EB) Pine Valley Station,,,,0.0,,,1.0,43.7842,-79.572199
501-zum-queen-eastbound-hwy-7-at-eb-vaughan-metrop,Hwy 7 at (EB) Ansley Grove Station,26,30,-8856052.4803,5432646.0626,1508.0,00020480,7029.0,Hwy 7 at (EB) Ansley Grove Station,,,,0.0,,,1.0,43.787695,-79.555273
501-zum-queen-eastbound-hwy-7-at-eb-vaughan-metrop,Hwy 7 at (EB) Weston Station,27,30,-8855064.9651,5432939.2045,1509.0,00020500,7031.0,Hwy 7 at (EB) Weston Station,,,,0.0,,,1.0,43.789596,-79.546402
501-zum-queen-eastbound-hwy-7-at-eb-vaughan-metrop,Hwy 7 at (EB) Commerce Station,28,30,-8853535.7692,5433368.5254,1511.0,00020930,7071.0,Hwy 7 at (EB) Commerce Station,,,,0.0,,,1.0,43.79238,-79.532665
501-zum-queen-eastbound-hwy-7-at-eb-vaughan-metrop,Hwy 7 at (EB) Vaughan Metropolitan Centre Station,29,30,-8853001.881,5433500.2248,2645.0,18010824,4120.0,Hwy 7 at (EB) Vaughan Metropolitan Centre Station,,,,0.0,,,1.0,43.793234,-79.527869
501-zum-queen-eastbound-hwy-7-at-eb-vaughan-metrop,Smart VMC Terminal - Route 501 Zum Queen WB,30,30,-8852976.9454,5434146.2577,2696.0,18090455,7223.0,Smart VMC Terminal - Route 501 Zum Queen WB,,,,0.0,place_SCBT,,1.0,43.797423,-79.527645
501-zum-queen-westbound-downtown-terminal-zum-quee,Smart VMC Terminal - Route 501 Zum Queen WB,1,30,-8852976.9454,5434146.2577,2696.0,18090455,7223.0,Smart VMC Terminal - Route 501 Zum Queen WB,,,,0.0,place_SCBT,,1.0,43.797423,-79.527645
501-zum-queen-westbound-downtown-terminal-zum-quee,Hwy 7 at (WB) Vaughan Metropolitan Centre Station,2,30,-8853015.7959,5433539.0873,2646.0,18010827,4123.0,Hwy 7 at (WB) Vaughan Metropolitan Centre Station,,,,0.0,,,1.0,43.793486,-79.527994
501-zum-queen-westbound-downtown-terminal-zum-quee,Hwy 7 at (WB) Commerce Station,3,30,-8853729.3538,5433322.724,1510.0,00020510,7032.0,Hwy 7 at (WB) Commerce Station,,,,0.0,,,1.0,43.792083,-79.534404
501-zum-queen-westbound-downtown-terminal-zum-quee,Hwy 7 at (WB) Weston Station,4,30,-8855292.5021,5432880.452,1512.0,00020940,7072.0,Hwy 7 at (WB) Weston Station,,,,0.0,,,1.0,43.789215,-79.548446
501-zum-queen-westbound-downtown-terminal-zum-quee,Hwy 7 at (WB) Ansley Grove Station,5,30,-8856241.9461,5432617.6896,1513.0,00020960,7074.0,Hwy 7 at (WB) Ansley Grove Station,,,,0.0,,,1.0,43.787511,-79.556975
501-zum-queen-westbound-downtown-terminal-zum-quee,Hwy 7 at (WB) Pine Valley Station,6,30,-8858129.702,5432074.4551,1514.0,00020980,7076.0,Hwy 7 at (WB) Pine Valley Station,,,,0.0,,,1.0,43.783988,-79.573933
501-zum-queen-westbound-downtown-terminal-zum-quee,Hwy 7 at (WB) Helen Station,7,30,-8858852.6108,5431864.2937,1515.0,00020985,7077.0,Hwy 7 at (WB) Helen Station,,,,0.0,,,1.0,43.782625,-79.580427
501-zum-queen-westbound-downtown-terminal-zum-quee,Hwy 7 at Islington Ave,8,30,-8859868.5124,5431531.7151,1505.0,00020430,7024.0,Hwy 7 at Islington Ave,,,,0.0,,,1.0,43.780468,-79.589553
501-zum-queen-westbound-downtown-terminal-zum-quee,Hwy 7 at Islington Ave,8,30,-8859944.321,5431544.0498,1516.0,00021010,7079.0,Hwy 7 at Islington Ave,,,,0.0,,,1.0,43.780548,-79.590234
501-zum-queen-westbound-downtown-terminal-zum-quee,Hwy 7 w/of Kipling Ave,9,30,-8860702.518,5431290.422,1517.0,00021020,7080.0,Hwy 7 w/of Kipling Ave,,,,0.0,,,1.0,43.778903,-79.597045
501-zum-queen-westbound-downtown-terminal-zum-quee,Hwy 7 at Martin Grove Rd,10,30,-8862058.7234,5430848.4016,1518.0,00021040,7082.0,Hwy 7 at Martin Grove Rd,,,,0.0,,,1.0,43.776036,-79.609228
501-zum-queen-westbound-downtown-terminal-zum-quee,Hwy 7 e/of Hwy 27,11,30,-8863025.5332,5430520.0221,1502.0,00020390,7019.0,Hwy 7 e/of Hwy 27,,,,0.0,,,1.0,43.773906,-79.617913
501-zum-queen-westbound-downtown-terminal-zum-quee,Hwy 7 e/of Hwy 27,11,30,-8863293.9245,5430466.2184,1519.0,00021060,7084.0,Hwy 7 e/of Hwy 27,,,,0.0,,,1.0,43.773557,-79.620324
501-zum-queen-westbound-downtown-terminal-zum-quee,Hwy 7 e/of Vaughan Valley Blvd,12,30,-8863805.4375,5430293.8634,1520.0,00021070,7085.0,Hwy 7 e/of Vaughan Valley Blvd,,,,0.0,,,1.0,43.772439,-79.624919
501-zum-queen-westbound-downtown-terminal-zum-quee,York University - 501C - Zum Station Stop WB,13,30,-8849960.9664,5430923.1751,2062.0,00045100,8501.0,York University - 501C - Zum Station Stop WB,,,,0.0,place_YORKU,,1.0,43.776521,-79.500552
501-zum-queen-westbound-downtown-terminal-zum-quee,Highway 50 - Zum Queen Station Stop WB,14,30,-8866561.3742,5429473.9108,2171.0,00050150,4035.0,Highway 50 - Zum Queen Station Stop WB,,,,0.0,place_QU50-W,,1.0,43.76712,-79.649676
501-zum-queen-westbound-downtown-terminal-zum-quee,The Gore Road - Zum Queen Station Stop WB,15,30,-8867344.1728,5429299.4164,2172.0,00050152,4036.0,The Gore Road - Zum Queen Station Stop WB,,,,0.0,,,1.0,43.765988,-79.656708
501-zum-queen-westbound-downtown-terminal-zum-quee,McVean - Zum Queen Station Stop WB,16,30,-8869243.7286,5428611.9525,2173.0,00050154,4037.0,McVean - Zum Queen Station Stop WB,,,,0.0,,,1.0,43.761528,-79.673772
501-zum-queen-westbound-downtown-terminal-zum-quee,Goreway - Zum Queen Station Stop WB,17,30,-8870561.4174,5427214.2161,2174.0,00050156,4038.0,Goreway - Zum Queen Station Stop WB,,,,0.0,,,1.0,43.752459,-79.685609
501-zum-queen-westbound-downtown-terminal-zum-quee,Airport Road - Zum Queen Station Stop WB,18,30,-8871811.9806,5425747.9687,2175.0,00050158,4039.0,Airport Road - Zum Queen Station Stop WB,,,,0.0,,,1.0,43.742944,-79.696843
501-zum-queen-westbound-downtown-terminal-zum-quee,Chrysler - Zum Queen Station Stop WB,19,30,-8872420.4529,5425016.0879,2176.0,00050160,4040.0,Chrysler - Zum Queen Station Stop WB,,,,0.0,,,1.0,43.738194,-79.702309
501-zum-queen-westbound-downtown-terminal-zum-quee,Torbram - Zum Queen Station Stop WB,20,30,-8873034.1573,5424273.4809,2177.0,00050162,4041.0,Torbram - Zum Queen Station Stop WB,,,,0.0,,,1.0,43.733374,-79.707822
501-zum-queen-westbound-downtown-terminal-zum-quee,Glenvale - Zum Queen Station Stop WB,21,30,-8873738.6983,5423403.0736,2178.0,00050164,4042.0,Glenvale - Zum Queen Station Stop WB,,,,0.0,,,1.0,43.727724,-79.714151
501-zum-queen-westbound-downtown-terminal-zum-quee,Bramalea - Zum Queen Station Stop WB,22,30,-8874198.8931,5422827.7256,2179.0,00050166,4043.0,Bramalea - Zum Queen Station Stop WB,,,,0.0,,,1.0,43.723989,-79.718285
501-zum-queen-westbound-downtown-terminal-zum-quee,Bramalea Terminal- Zum Queen 501/501C EB-Departure,23,30,-8874470.7353,5422041.8597,2186.0,00050198,4003.0,Bramalea Terminal- Zum Queen 501/501C EB-Departure,,,,0.0,place_CITY,,1.0,43.718887,-79.720727
501-zum-queen-westbound-downtown-terminal-zum-quee,Bramalea Terminal- Zum Queen 501 WB-Departure,24,30,-8874452.4789,5422062.1909,2185.0,00050193,4002.0,Bramalea Terminal- Zum Queen 501 WB-Departure,,,,0.0,place_CITY,,1.0,43.719019,-79.720563
501-zum-queen-westbound-downtown-terminal-zum-quee,Dixie - Zum Queen Station Stop WB,25,30,-8875387.006,5421336.609,2180.0,00050168,4044.0,Dixie - Zum Queen Station Stop WB,,,,0.0,,,1.0,43.714308,-79.728958
501-zum-queen-westbound-downtown-terminal-zum-quee,Laurelcrest - Zum Queen Station Stop WB,26,30,-8876094.998,5420454.4668,2181.0,00050170,4045.0,Laurelcrest - Zum Queen Station Stop WB,,,,0.0,,,1.0,43.70858,-79.735318
501-zum-queen-westbound-downtown-terminal-zum-quee,Rutherford - Zum Queen Station Stop WB,27,30,-8876962.2882,5419370.5392,2182.0,00050172,4046.0,Rutherford - Zum Queen Station Stop WB,,,,0.0,,,1.0,43.701541,-79.743109
501-zum-queen-westbound-downtown-terminal-zum-quee,Kennedy - Zum Queen Station Stop WB,28,30,-8877730.0587,5418419.9167,2183.0,00050174,4047.0,Kennedy - Zum Queen Station Stop WB,,,,0.0,,,1.0,43.695367,-79.750006
501-zum-queen-westbound-downtown-terminal-zum-quee,Centre - Zum Queen Station Stop WB,29,30,-8878259.7168,5417742.0383,2184.0,00050176,4048.0,Centre - Zum Queen Station Stop WB,,,,0.0,,,1.0,43.690964,-79.754764
501-zum-queen-westbound-downtown-terminal-zum-quee,Downtown Terminal Zum Queen Stop,30,30,-8879117.2109,5417111.7776,2156.0,00050100,4020.0,Downtown Terminal Zum Queen Stop,,,,0.0,place_4CRN,,1.0,43.68687,-79.762467
502-zum-main-northbound-sandalwood-loop-route-502-,City Centre Transit Terminal - Platform L,1,18,-8866302.1111,5402829.447,1785.0,00028180,6178.0,City Centre Transit Terminal - Platform L,,,,0.0,place_MCCT,,1.0,43.594021,-79.647347
502-zum-main-northbound-sandalwood-loop-route-502-,Hurontario St at Eglinton Ave - NB (Zum Main),2,18,-8866991.4014,5404893.3131,1776.0,00028075,6166.0,Hurontario St at Eglinton Ave - NB (Zum Main),,,,0.0,,,1.0,43.607447,-79.653539
502-zum-main-northbound-sandalwood-loop-route-502-,Hurontario St at Bristol Rd - NB (Zum Main),3,18,-8868063.8533,5405972.4683,1777.0,00028080,6167.0,Hurontario St at Bristol Rd - NB (Zum Main),,,,0.0,,,1.0,43.614466,-79.663173
502-zum-main-northbound-sandalwood-loop-route-502-,Hurontario St at Matheson Blvd - NB (Zum Main),4,18,-8868786.0942,5406705.4555,1778.0,00028085,6168.0,Hurontario St at Matheson Blvd - NB (Zum Main),,,,0.0,,,1.0,43.619233,-79.669661
502-zum-main-northbound-sandalwood-loop-route-502-,Hurontario St at Britannia Rd - NB (Zum Main),5,18,-8869850.5312,5407788.6669,1779.0,00028090,6169.0,Hurontario St at Britannia Rd - NB (Zum Main),,,,0.0,,,1.0,43.626277,-79.679223
502-zum-main-northbound-sandalwood-loop-route-502-,Hurontario St at Courtneypark Dr - NB (Zum Main),6,18,-8871580.5474,5409565.0762,1774.0,00028060,6170.0,Hurontario St at Courtneypark Dr - NB (Zum Main),,,,0.0,,,1.0,43.637827,-79.694764
502-zum-main-northbound-sandalwood-loop-route-502-,Hurontario St at Derry Rd - NB (Zum Main),7,18,-8872782.9092,5410795.8436,1775.0,00028070,6171.0,Hurontario St at Derry Rd - NB (Zum Main),,,,0.0,,,1.0,43.645828,-79.705565
502-zum-main-northbound-sandalwood-loop-route-502-,County Court South - Zum Main Station Stop NB,8,18,-8874794.675,5412841.0243,1744.0,00026790,3165.0,County Court South - Zum Main Station Stop NB,,,,0.0,,,1.0,43.659121,-79.723637
502-zum-main-northbound-sandalwood-loop-route-502-,County Court North - Zum Main Station Stop NB,9,18,-8875254.8698,5413317.2673,1746.0,00026800,3167.0,County Court North - Zum Main Station Stop NB,,,,0.0,,,1.0,43.662216,-79.727771
502-zum-main-northbound-sandalwood-loop-route-502-,Brampton Gateway Terminal Route 502 NB Stop,10,18,-8875943.3809,5413903.7185,1801.0,00030110,4207.0,Brampton Gateway Terminal Route 502 NB Stop,,,,0.0,place_GATE,,1.0,43.666027,-79.733956
502-zum-main-northbound-sandalwood-loop-route-502-,Nanwood - Zum Main Station Stop NB,11,18,-8877513.9875,5415633.2815,638.0,00009090,1725.0,Nanwood - Zum Main Station Stop NB,,,,0.0,,,1.0,43.677265,-79.748065
502-zum-main-northbound-sandalwood-loop-route-502-,Wellington - Zum Main Station Stop NB,12,18,-8878592.1168,5416731.0865,643.0,00009140,1730.0,Wellington - Zum Main Station Stop NB,,,,0.0,,,1.0,43.684397,-79.75775
502-zum-main-northbound-sandalwood-loop-route-502-,Theatre Lane - Zum Main Station Stop NB,13,18,-8879044.6305,5417192.1357,646.0,00009160,1733.0,Theatre Lane - Zum Main Station Stop NB,,,,0.0,,,1.0,43.687392,-79.761815
502-zum-main-northbound-sandalwood-loop-route-502-,Vodden - Zum Main Station Stop NB,14,18,-8879848.9139,5418025.3155,650.0,00009195,1737.0,Vodden - Zum Main Station Stop NB,,,,0.0,,,1.0,43.692804,-79.76904
502-zum-main-northbound-sandalwood-loop-route-502-,Williams - Zum Main Station Stop NB,15,18,-8880703.6249,5418912.7686,653.0,00009230,1741.0,Williams - Zum Main Station Stop NB,,,,0.0,,,1.0,43.698568,-79.776718
502-zum-main-northbound-sandalwood-loop-route-502-,Bovaird - Zum Main Station Stop NB,16,18,-8881911.7754,5420147.0921,659.0,00009280,1748.0,Bovaird - Zum Main Station Stop NB,,,,0.0,,,1.0,43.706584,-79.787571
502-zum-main-northbound-sandalwood-loop-route-502-,Sandalwood - Zum Main Station Stop NB,17,18,-8883684.5382,5421952.68,931.0,00012425,2060.0,Sandalwood - Zum Main Station Stop NB,,,,0.0,,,1.0,43.718308,-79.803496
502-zum-main-northbound-sandalwood-loop-route-502-,Sandalwood Loop - Route 502 Stop,18,18,-8884278.4277,5422339.7477,932.0,00012430,3874.0,Sandalwood Loop - Route 502 Stop,,,,0.0,place_SWLP,,1.0,43.720821,-79.808831
502-zum-main-southbound-mississauga-city-centre-te,Sandalwood Loop - Route 502 Stop,1,18,-8884278.4277,5422339.7477,932.0,00012430,3874.0,Sandalwood Loop - Route 502 Stop,,,,0.0,place_SWLP,,1.0,43.720821,-79.808831
502-zum-main-southbound-mississauga-city-centre-te,Sandalwood - Zum Main Station Stop SB,2,18,-8883593.7015,5421798.6584,676.0,00009475,1767.0,Sandalwood - Zum Main Station Stop SB,,,,0.0,,,1.0,43.717308,-79.80268
502-zum-main-southbound-mississauga-city-centre-te,Bovaird - Zum Main Station Stop SB,3,18,-8881736.1132,5419897.0112,682.0,00009530,1773.0,Bovaird - Zum Main Station Stop SB,,,,0.0,,,1.0,43.70496,-79.785993
502-zum-main-southbound-mississauga-city-centre-te,Williams - Zum Main Station Stop SB,4,18,-8880724.4417,5418869.5025,686.0,00009580,1778.0,Williams - Zum Main Station Stop SB,,,,0.0,,,1.0,43.698287,-79.776905
502-zum-main-southbound-mississauga-city-centre-te,Vodden - Zum Main Station Stop SB,5,18,-8879864.7212,5417997.6032,689.0,00009610,1781.0,Vodden - Zum Main Station Stop SB,,,,0.0,,,1.0,43.692624,-79.769182
502-zum-main-southbound-mississauga-city-centre-te,Nelson - Zum Main Station Stop SB,6,18,-8879064.6681,5417180.2821,693.0,00009650,1785.0,Nelson - Zum Main Station Stop SB,,,,0.0,,,1.0,43.687315,-79.761995
502-zum-main-southbound-mississauga-city-centre-te,Wellington - Zum Main Station Stop SB,7,18,-8878690.9685,5416796.6634,695.0,00009670,1787.0,Wellington - Zum Main Station Stop SB,,,,0.0,,,1.0,43.684823,-79.758638
502-zum-main-southbound-mississauga-city-centre-te,Nanwood - Zum Main Station Stop SB,8,18,-8877428.6055,5415485.0602,699.0,00009720,1793.0,Nanwood - Zum Main Station Stop SB,,,,0.0,,,1.0,43.676302,-79.747298
502-zum-main-southbound-mississauga-city-centre-te,Brampton Gateway Terminal Route 2/502 SB,9,18,-8875906.8681,5413927.879,1805.0,00030117,4214.0,Brampton Gateway Terminal Route 2/502 SB,,,,0.0,place_GATE,,1.0,43.666184,-79.733628
502-zum-main-southbound-mississauga-city-centre-te,Sir Lou - Zum Main Station Stop SB,10,18,-8875177.8367,5413159.8505,704.0,00009780,1800.0,Sir Lou - Zum Main Station Stop SB,,,,0.0,,,1.0,43.661193,-79.727079
502-zum-main-southbound-mississauga-city-centre-te,Ray Lawson - Zum Main Station Stop SB,11,18,-8874810.9277,5412775.6294,705.0,00009785,1801.0,Ray Lawson - Zum Main Station Stop SB,,,,0.0,,,1.0,43.658696,-79.723783
502-zum-main-southbound-mississauga-city-centre-te,Hurontario St at Derry Rd (Zum),12,18,-8872892.4476,5410848.9175,1750.0,00026815,6134.0,Hurontario St at Derry Rd (Zum),,,,0.0,,,1.0,43.646173,-79.706549
502-zum-main-southbound-mississauga-city-centre-te,Hurontario St at Courtneypark Dr - SB (Zum Main),13,18,-8871558.6174,5409473.402,1780.0,00028110,6173.0,Hurontario St at Courtneypark Dr - SB (Zum Main),,,,0.0,,,1.0,43.637231,-79.694567
502-zum-main-southbound-mississauga-city-centre-te,Hurontario St at Britannia Rd - SB (Zum Main),14,18,-8869763.368,5407627.961,1781.0,00028120,6174.0,Hurontario St at Britannia Rd - SB (Zum Main),,,,0.0,,,1.0,43.625232,-79.67844
502-zum-main-southbound-mississauga-city-centre-te,Hurontario St at Matheson - SB (Zum Main),15,18,-8868905.3174,5406751.5862,1782.0,00028130,6175.0,Hurontario St at Matheson - SB (Zum Main),,,,0.0,,,1.0,43.619533,-79.670732
502-zum-main-southbound-mississauga-city-centre-te,Hurontario St at Bristol Rd - SB (Zum Main),16,18,-8868139.6619,5405977.8498,1783.0,00028140,6176.0,Hurontario St at Bristol Rd - SB (Zum Main),,,,0.0,,,1.0,43.614501,-79.663854
502-zum-main-southbound-mississauga-city-centre-te,Hurontario St at Eglinton Ave - SB (Zum Main),17,18,-8866836.4446,5404667.9348,1784.0,00028150,6177.0,Hurontario St at Eglinton Ave - SB (Zum Main),,,,0.0,,,1.0,43.605981,-79.652147
502-zum-main-southbound-mississauga-city-centre-te,City Centre Transit Terminal - Arrival,18,18,-8866364.3387,5402734.9193,1786.0,00028190,9992.0,City Centre Transit Terminal - Arrival,,,,0.0,place_MCCT,,1.0,43.593406,-79.647906
malton-go-station-route-505-stop,Mount Pleasant GO Station - 5/5A/505 Zum Bovaird,1,24,-8885832.2252,5415261.4243,2330.0,14090132,3888.0,Mount Pleasant GO Station - 5/5A/505 Zum Bovaird,,,,0.0,place_MPGO,,1.0,43.674849,-79.822789
malton-go-station-route-505-stop,Lake Louise - Zum Bovaird Station Stop EB,2,24,-8884848.6062,5416205.7185,1173.0,00015900,2382.0,Lake Louise - Zum Bovaird Station Stop EB,,,,0.0,,,1.0,43.680984,-79.813953
malton-go-station-route-505-stop,Chinguacousy - Zum Bovaird Station Stop EB,3,24,-8884168.4441,5417071.2909,1205.0,00016460,2426.0,Chinguacousy - Zum Bovaird Station Stop EB,,,,0.0,,,1.0,43.686607,-79.807843
malton-go-station-route-505-stop,McLaughlin - Zum Bovaird Station Stop EB,4,24,-8882951.8334,5418556.1759,1208.0,00016480,2428.0,McLaughlin - Zum Bovaird Station Stop EB,,,,0.0,,,1.0,43.696252,-79.796914
malton-go-station-route-505-stop,Main - Zum Bovaird Station Stop EB,5,24,-8881710.8437,5420125.8411,1211.0,00016510,2431.0,Main - Zum Bovaird Station Stop EB,,,,0.0,,,1.0,43.706446,-79.785766
malton-go-station-route-505-stop,Kennedy - Zum Bovaird Station Stop EB,6,24,-8880600.877,5421648.1818,1214.0,00016540,2434.0,Kennedy - Zum Bovaird Station Stop EB,,,,0.0,,,1.0,43.716331,-79.775795
malton-go-station-route-505-stop,Southlake - Zum Bovaird Station Stop EB,7,24,-8879942.3109,5422406.2886,1216.0,00016560,2436.0,Southlake - Zum Bovaird Station Stop EB,,,,0.0,,,1.0,43.721253,-79.769879
malton-go-station-route-505-stop,Trinity Common Terminal-5/5A EB/ 505/505A EB Stop,8,24,-8879265.7111,5423870.4644,2333.0,14090135,3891.0,Trinity Common Terminal-5/5A EB/ 505/505A EB Stop,,,,0.0,place_SPTE,,1.0,43.730758,-79.763801
malton-go-station-route-505-stop,Dixie - Zum Bovaird Station Stop EB,9,24,-8878164.2047,5424562.8132,2335.0,14090137,3893.0,Dixie - Zum Bovaird Station Stop EB,,,,0.0,,,1.0,43.735252,-79.753906
malton-go-station-route-505-stop,Bramalea - Zum Bovaird Station Stop EB,10,24,-8877106.8922,5425891.4241,2337.0,14090139,3895.0,Bramalea - Zum Bovaird Station Stop EB,,,,0.0,,,1.0,43.743875,-79.744408
malton-go-station-route-505-stop,Brampton Civic Hospital - Zum Bovaird Stop EB,11,24,-8876742.0982,5426351.3902,1266.0,00017145,2501.0,Brampton Civic Hospital - Zum Bovaird Stop EB,,,,0.0,,,1.0,43.74686,-79.741131
malton-go-station-route-505-stop,Torbram - Zum Bovaird Station Stop EB,12,24,-8875861.6723,5427566.0577,1226.0,00016670,2451.0,Torbram - Zum Bovaird Station Stop EB,,,,0.0,,,1.0,43.754742,-79.733222
malton-go-station-route-505-stop,Airport Road - Zum Bovaird Station Stop EB,13,24,-8874697.1592,5428795.374,1229.0,00016700,2454.0,Airport Road - Zum Bovaird Station Stop EB,,,,0.0,,,1.0,43.762718,-79.722761
malton-go-station-route-505-stop,North Park - Zum Bovaird Station Stop SB,14,24,-8874024.9007,5428193.7961,1106.0,00015130,2296.0,North Park - Zum Bovaird Station Stop SB,,,,0.0,,,1.0,43.758815,-79.716722
malton-go-station-route-505-stop,Williams - Zum Bovaird Station Stop SB,15,24,-8873099.5018,5427253.2062,1108.0,00015160,2299.0,Williams - Zum Bovaird Station Stop SB,,,,0.0,,,1.0,43.752712,-79.708409
malton-go-station-route-505-stop,Queen - Zum Bovaird Station Stop SB,16,24,-8871589.7869,5425679.0924,2651.0,18030505,4127.0,Queen - Zum Bovaird Station Stop SB,,,,0.0,,,1.0,43.742497,-79.694847
malton-go-station-route-505-stop,Woodslea - Zum Bovaird Station Stop SB,17,24,-8869825.039,5423884.9456,742.0,00010130,1836.0,Woodslea - Zum Bovaird Station Stop SB,,,,0.0,,,1.0,43.730852,-79.678994
malton-go-station-route-505-stop,Steeles - Zum Bovaird Station Stop SB,18,24,-8868665.5352,5422680.1589,1115.0,00015240,2308.0,Steeles - Zum Bovaird Station Stop SB,,,,0.0,,,1.0,43.723031,-79.668578
malton-go-station-route-505-stop,Morning Star - Zum Bovaird Stop SB,19,24,-8866619.7056,5420576.126,2661.0,18090403,4140.0,Morning Star - Zum Bovaird Stop SB,,,,0.0,,,1.0,43.70937,-79.6502
malton-go-station-route-505-stop,Airport Rd s/of Derry Rd,20,24,-8865526.7708,5419423.6624,1938.0,00042980,6181.0,Airport Rd s/of Derry Rd,,,,0.0,,,1.0,43.701886,-79.640382
malton-go-station-route-505-stop,Airport Rd s/of Derry Rd,20,24,-8865499.0523,5419454.7666,2774.0,22103104,6225.0,Airport Rd s/of Derry Rd,,,,0.0,,,1.0,43.702088,-79.640133
malton-go-station-route-505-stop,Viscount Rd s/of American Dr,21,24,-8863132.1773,5417795.46,2771.0,22103101,6222.0,Viscount Rd s/of American Dr,,,,0.0,,,1.0,43.691311,-79.618871
malton-go-station-route-505-stop,Viscount Station - Route 505A Stop,22,24,-8862732.9856,5417528.3545,2772.0,22103102,6223.0,Viscount Station - Route 505A Stop,,,,0.0,,,1.0,43.689576,-79.615285
malton-go-station-route-505-stop,Derry - Zum Bovaird Stop SB,23,24,-8865769.5586,5419801.0768,2662.0,18090404,4141.0,Derry - Zum Bovaird Stop SB,,,,0.0,,,1.0,43.704337,-79.642563
malton-go-station-route-505-stop,Malton GO Station - Route 505 Stop,24,24,-8865294.781,5419951.8313,2698.0,18090457,4194.0,Malton GO Station - Route 505 Stop,,,,0.0,place_MLGO,,1.0,43.705316,-79.638298
mount-pleasant-go-station-55a505-zum-bovaird,Malton GO Station - Route 505 Stop,1,26,-8865294.781,5419951.8313,2698.0,18090457,4194.0,Malton GO Station - Route 505 Stop,,,,0.0,place_MLGO,,1.0,43.705316,-79.638298
mount-pleasant-go-station-55a505-zum-bovaird,Derry - Zum Bovaird Stop NB,2,26,-8865767.8888,5419840.1896,2663.0,18090405,4142.0,Derry - Zum Bovaird Stop NB,,,,0.0,,,0.0,43.704591,-79.642548
mount-pleasant-go-station-55a505-zum-bovaird,Viscount Station - Route 505A Stop,3,26,-8862732.9856,5417528.3545,2772.0,22103102,6223.0,Viscount Station - Route 505A Stop,,,,0.0,,,1.0,43.689576,-79.615285
mount-pleasant-go-station-55a505-zum-bovaird,American Dr w/of Viscount Rd,4,26,-8863251.2891,5417758.5112,2773.0,22103103,6224.0,American Dr w/of Viscount Rd,,,,0.0,,,1.0,43.691071,-79.619941
mount-pleasant-go-station-55a505-zum-bovaird,Airport Rd n/of American Dr,5,26,-8863484.3921,5417530.8176,1940.0,00043013,6188.0,Airport Rd n/of American Dr,,,,0.0,,,1.0,43.689592,-79.622035
mount-pleasant-go-station-55a505-zum-bovaird,Airport Rd n/of American Dr,5,26,-8863835.6051,5417757.1257,1941.0,00043015,6189.0,Airport Rd n/of American Dr,,,,0.0,,,1.0,43.691062,-79.62519
mount-pleasant-go-station-55a505-zum-bovaird,Airport Rd s/of Derry Rd,6,26,-8865526.7708,5419423.6624,1938.0,00042980,6181.0,Airport Rd s/of Derry Rd,,,,0.0,,,1.0,43.701886,-79.640382
mount-pleasant-go-station-55a505-zum-bovaird,Airport Rd s/of Derry Rd,6,26,-8865499.0523,5419454.7666,2774.0,22103104,6225.0,Airport Rd s/of Derry Rd,,,,0.0,,,1.0,43.702088,-79.640133
mount-pleasant-go-station-55a505-zum-bovaird,Morning Star - Zum Bovaird Stop NB,7,26,-8866695.0689,5420702.4068,1071.0,00014750,6089.0,Morning Star - Zum Bovaird Stop NB,,,,0.0,,,1.0,43.71019,-79.650877
mount-pleasant-go-station-55a505-zum-bovaird,Steeles - Zum Bovaird Station Stop NB,8,26,-8868642.0468,5422741.7731,1075.0,00014790,2254.0,Steeles - Zum Bovaird Station Stop NB,,,,0.0,,,1.0,43.723431,-79.668367
mount-pleasant-go-station-55a505-zum-bovaird,Intermodal - Zum Bovaird Station Stop NB,9,26,-8869802.7751,5423936.2461,741.0,00010125,1835.0,Intermodal - Zum Bovaird Station Stop NB,,,,0.0,,,1.0,43.731185,-79.678794
mount-pleasant-go-station-55a505-zum-bovaird,Queen - Zum Bovaird Station Stop NB,10,26,-8871757.9906,5425937.4967,2650.0,18030504,4126.0,Queen - Zum Bovaird Station Stop NB,,,,0.0,,,1.0,43.744174,-79.696358
mount-pleasant-go-station-55a505-zum-bovaird,Williams - Zum Bovaird Station Stop NB,11,26,-8873239.2078,5427472.047,1085.0,00014890,2265.0,Williams - Zum Bovaird Station Stop NB,,,,0.0,,,1.0,43.754132,-79.709664
mount-pleasant-go-station-55a505-zum-bovaird,Cottrelle - Zum Bovaird Station Stop NB,12,26,-8874006.3104,5428254.3683,1087.0,00014905,2267.0,Cottrelle - Zum Bovaird Station Stop NB,,,,0.0,,,1.0,43.759208,-79.716555
mount-pleasant-go-station-55a505-zum-bovaird,Airport Road - Zum Bovaird Station Stop WB,13,26,-8874785.3242,5428778.8813,1260.0,00017090,2494.0,Airport Road - Zum Bovaird Station Stop WB,,,,0.0,,,1.0,43.762611,-79.723553
mount-pleasant-go-station-55a505-zum-bovaird,Torbram - Zum Bovaird Station Stop WB,14,26,-8876022.863,5427462.3377,1262.0,00017120,2496.0,Torbram - Zum Bovaird Station Stop WB,,,,0.0,,,1.0,43.754069,-79.73467
mount-pleasant-go-station-55a505-zum-bovaird,Brampton Civic Hospital - Zum Bovaird Stop WB,15,26,-8876808.5559,5426356.0131,1265.0,00017135,2499.0,Brampton Civic Hospital - Zum Bovaird Stop WB,,,,0.0,,,1.0,43.74689,-79.741728
mount-pleasant-go-station-55a505-zum-bovaird,Bramalea - Zum Bovaird Station Stop WB,16,26,-8877160.3255,5425919.6224,1267.0,00017150,2502.0,Bramalea - Zum Bovaird Station Stop WB,,,,0.0,,,1.0,43.744058,-79.744888
mount-pleasant-go-station-55a505-zum-bovaird,Dixie - Zum Bovaird Station Stop WB,17,26,-8878354.7837,5424418.454,2336.0,14090138,3894.0,Dixie - Zum Bovaird Station Stop WB,,,,0.0,,,1.0,43.734315,-79.755618
mount-pleasant-go-station-55a505-zum-bovaird,Trinity Common Terminal-5/5A EB/ 505/505A EB Stop,18,26,-8879265.7111,5423870.4644,2333.0,14090135,3891.0,Trinity Common Terminal-5/5A EB/ 505/505A EB Stop,,,,0.0,place_SPTE,,1.0,43.730758,-79.763801
mount-pleasant-go-station-55a505-zum-bovaird,Trinity Common Terminal - 5/5A WB/ 505 WB/17 Stop,19,26,-8879324.933,5423854.2887,2334.0,14090136,3892.0,Trinity Common Terminal - 5/5A WB/ 505 WB/17 Stop,,,,0.0,place_SPTE,,1.0,43.730653,-79.764333
mount-pleasant-go-station-55a505-zum-bovaird,Heart Lake - Zum Bovaird Station Stop WB,20,26,-8880007.6555,5422412.1418,2332.0,14090134,3890.0,Heart Lake - Zum Bovaird Station Stop WB,,,,0.0,,,1.0,43.721291,-79.770466
mount-pleasant-go-station-55a505-zum-bovaird,Kennedy - Zum Bovaird Station Stop WB,21,26,-8880780.2127,5421502.6361,1272.0,00017230,2511.0,Kennedy - Zum Bovaird Station Stop WB,,,,0.0,,,1.0,43.715386,-79.777406
mount-pleasant-go-station-55a505-zum-bovaird,Main - Zum Bovaird Station Stop WB,22,26,-8881912.3319,5419976.7777,1276.0,00017270,2515.0,Main - Zum Bovaird Station Stop WB,,,,0.0,,,1.0,43.705478,-79.787576
mount-pleasant-go-station-55a505-zum-bovaird,McLaughlin- Zum Bovaird Station Stop WB,23,26,-8883091.9846,5418478.2693,2331.0,14090133,3889.0,McLaughlin- Zum Bovaird Station Stop WB,,,,0.0,,,1.0,43.695746,-79.798173
mount-pleasant-go-station-55a505-zum-bovaird,Chinguacousy - Zum Bovaird Station Stop WB,24,26,-8884311.0443,5416971.3834,1281.0,00017320,2520.0,Chinguacousy - Zum Bovaird Station Stop WB,,,,0.0,,,1.0,43.685958,-79.809124
mount-pleasant-go-station-55a505-zum-bovaird,Worthington - Zum Bovaird Station Stop WB,25,26,-8884913.7281,5416212.3374,1169.0,00015870,2378.0,Worthington - Zum Bovaird Station Stop WB,,,,0.0,,,1.0,43.681027,-79.814538
mount-pleasant-go-station-55a505-zum-bovaird,Mount Pleasant GO Station - 5/5A/505 Zum Bovaird,26,26,-8885832.2252,5415261.4243,2330.0,14090132,3888.0,Mount Pleasant GO Station - 5/5A/505 Zum Bovaird,,,,0.0,place_MPGO,,1.0,43.674849,-79.822789
511-zum-steeles-east-gtt-511-zum-steeles-eastbound,Lisgar GO Station - Route 11/511 Stop,1,24,-8882006.3969,5402492.0719,2004.0,00044406,6195.0,Lisgar GO Station - Route 11/511 Stop,,,,0.0,place_LISGO,,1.0,43.591826,-79.788421
511-zum-steeles-east-gtt-511-zum-steeles-eastbound,Argentia - Zum Steeles Stop EB,2,24,-8881770.3996,5402984.6898,50.0,00000477,3712.0,Argentia - Zum Steeles Stop EB,,,,0.0,,,1.0,43.595031,-79.786301
511-zum-steeles-east-gtt-511-zum-steeles-eastbound,Winston Churchill - Zum Steeles Station Stop EB,3,24,-8882954.3937,5404993.3976,47.0,00000469,3694.0,Winston Churchill - Zum Steeles Station Stop EB,,,,0.0,,,1.0,43.608098,-79.796937
511-zum-steeles-east-gtt-511-zum-steeles-eastbound,Heritage - Zum Steeles Station Stop EB,4,24,-8881734.2208,5406504.1742,44.0,00000461,3695.0,Heritage - Zum Steeles Station Stop EB,,,,0.0,,,1.0,43.617924,-79.785976
511-zum-steeles-east-gtt-511-zum-steeles-eastbound,Heritage Rd at Amazon Fulfillment Centre YYZ4,5,24,-8881878.0455,5406482.3395,2697.0,18090456,4193.0,Heritage Rd at Amazon Fulfillment Centre YYZ4,,,,0.0,,,1.0,43.617782,-79.787268
511-zum-steeles-east-gtt-511-zum-steeles-eastbound,Hereford - Zum Steeles Station Stop EB,6,24,-8881158.0311,5407235.8195,2349.0,15033006,3940.0,Hereford - Zum Steeles Station Stop EB,,,,0.0,,,1.0,43.622682,-79.7808
511-zum-steeles-east-gtt-511-zum-steeles-eastbound,Mississauga Road - Zum Steeles Station Stop EB,7,24,-8880532.8608,5408025.9631,48.0,00000470,1048.0,Mississauga Road - Zum Steeles Station Stop EB,,,,0.0,,,1.0,43.62782,-79.775184
511-zum-steeles-east-gtt-511-zum-steeles-eastbound,Financial - Zum Steeles Station Stop EB,8,24,-8879902.1246,5408809.4069,2348.0,15033005,3941.0,Financial - Zum Steeles Station Stop EB,,,,0.0,,,1.0,43.632914,-79.769518
511-zum-steeles-east-gtt-511-zum-steeles-eastbound,Mavis - Zum Steeles Station Stop EB,9,24,-8878122.9052,5411028.2941,55.0,00000540,1055.0,Mavis - Zum Steeles Station Stop EB,,,,0.0,,,1.0,43.647339,-79.753535
511-zum-steeles-east-gtt-511-zum-steeles-eastbound,Sheridan College Terminal - 11/51/511/511C EB,10,24,-8876785.5128,5412372.8067,2345.0,15033002,4225.0,Sheridan College Terminal - 11/51/511/511C EB,,,,0.0,place_SHER,,1.0,43.656078,-79.741521
511-zum-steeles-east-gtt-511-zum-steeles-eastbound,Malta - Zum Steeles Station Stop EB,11,24,-8876402.3511,5413171.699,2346.0,15033003,3942.0,Malta - Zum Steeles Station Stop EB,,,,0.0,,,1.0,43.66127,-79.738079
511-zum-steeles-east-gtt-511-zum-steeles-eastbound,Brampton Gateway Terminal Route 511/511A/511C EB,12,24,-8875943.8261,5413871.8636,1800.0,00030109,4206.0,Brampton Gateway Terminal Route 511/511A/511C EB,,,,0.0,place_GATE,,1.0,43.66582,-79.73396
511-zum-steeles-east-gtt-511-zum-steeles-eastbound,Kennedy - Zum Steeles Station Stop EB,13,24,-8874584.0586,5415469.2069,2190.0,00051100,1003.0,Kennedy - Zum Steeles Station Stop EB,,,,0.0,,,1.0,43.676199,-79.721745
511-zum-steeles-east-gtt-511-zum-steeles-eastbound,First Gulf - Zum Steeles Station Stop EB,14,24,-8873994.1766,5416202.64,2192.0,00051102,4106.0,First Gulf - Zum Steeles Station Stop EB,,,,0.0,,,1.0,43.680964,-79.716446
511-zum-steeles-east-gtt-511-zum-steeles-eastbound,Tomken - Zum Steeles Station Stop EB,15,24,-8872796.0449,5417726.9509,2194.0,00051104,4107.0,Tomken - Zum Steeles Station Stop EB,,,,0.0,,,1.0,43.690866,-79.705683
511-zum-steeles-east-gtt-511-zum-steeles-eastbound,Dixie - Zum Steeles Station Stop EB,16,24,-8872180.4481,5418488.5849,2196.0,00051106,1066.0,Dixie - Zum Steeles Station Stop EB,,,,0.0,,,1.0,43.695813,-79.700153
511-zum-steeles-east-gtt-511-zum-steeles-eastbound,Bramalea GO Station-Route 11/11A/511/A/C EB Stop,17,24,-8871320.2824,5419465.6992,2766.0,22080109,4291.0,Bramalea GO Station-Route 11/11A/511/A/C EB Stop,,,,0.0,,,1.0,43.702159,-79.692426
511-zum-steeles-east-gtt-511-zum-steeles-eastbound,Torbram - Zum Steeles Station Stop EB,18,24,-8869823.3692,5421400.8324,2198.0,00051110,4109.0,Torbram - Zum Steeles Station Stop EB,,,,0.0,,,1.0,43.714725,-79.678979
511-zum-steeles-east-gtt-511-zum-steeles-eastbound,Airport Road - Zum Steeles Station Stop EB,19,24,-8868613.7716,5422876.4016,2200.0,00051112,1074.0,Airport Road - Zum Steeles Station Stop EB,,,,0.0,,,1.0,43.724305,-79.668113
511-zum-steeles-east-gtt-511-zum-steeles-eastbound,Goreway - Zum Steeles Station Stop EB,20,24,-8867425.3247,5424310.4557,2202.0,00051114,4110.0,Goreway - Zum Steeles Station Stop EB,,,,0.0,,,1.0,43.733614,-79.657437
511-zum-steeles-east-gtt-511-zum-steeles-eastbound,Finch - Zum Steeles Station Stop EB,21,24,-8866220.6252,5425608.9839,2204.0,00051116,4111.0,Finch - Zum Steeles Station Stop EB,,,,0.0,,,1.0,43.742042,-79.646615
511-zum-steeles-east-gtt-511-zum-steeles-eastbound,Darcel - Zum Steeles Stop,22,24,-8864832.6938,5424276.0999,2648.0,18030502,4124.0,Darcel - Zum Steeles Stop,,,,0.0,,,1.0,43.733391,-79.634147
511-zum-steeles-east-gtt-511-zum-steeles-eastbound,Finch Ave w/of Humber College Blvd,23,24,-8862248.9684,5424430.9332,1283.0,00017400,8010.0,Finch Ave w/of Humber College Blvd,,,,0.0,,,1.0,43.734396,-79.610937
511-zum-steeles-east-gtt-511-zum-steeles-eastbound,Finch Ave w/of Humber College Blvd,23,24,-8862165.5901,5424374.0837,1343.0,00017870,8030.0,Finch Ave w/of Humber College Blvd,,,,0.0,,,1.0,43.734027,-79.610188
511-zum-steeles-east-gtt-511-zum-steeles-eastbound,Humber College Terminal- Zum Steeles 511/511A/511C,24,24,-8861619.0114,5423623.5177,2434.0,15090802,4227.0,Humber College Terminal- Zum Steeles 511/511A/511C,,,,0.0,,,1.0,43.729155,-79.605278
511-zum-steeles-westbound-511a-zum-steeles-west-br,Humber College Terminal- Zum Steeles 511/511A/511C,1,25,-8861619.0114,5423623.5177,2434.0,15090802,4227.0,Humber College Terminal- Zum Steeles 511/511A/511C,,,,0.0,,,1.0,43.729155,-79.605278
511-zum-steeles-westbound-511a-zum-steeles-west-br,Finch Ave w/of Humber College Blvd,2,25,-8862248.9684,5424430.9332,1283.0,00017400,8010.0,Finch Ave w/of Humber College Blvd,,,,0.0,,,1.0,43.734396,-79.610937
511-zum-steeles-westbound-511a-zum-steeles-west-br,Finch Ave w/of Humber College Blvd,2,25,-8862165.5901,5424374.0837,1343.0,00017870,8030.0,Finch Ave w/of Humber College Blvd,,,,0.0,,,1.0,43.734027,-79.610188
511-zum-steeles-westbound-511a-zum-steeles-west-br,Longo Circle - Zum Steeles Stop,3,25,-8864738.7401,5424274.2512,88.0,00001090,6000.0,Longo Circle - Zum Steeles Stop,,,,0.0,,,1.0,43.733379,-79.633303
511-zum-steeles-westbound-511a-zum-steeles-west-br,Finch - Zum Steeles Station Stop WB,4,25,-8866363.4481,5425683.869,2205.0,00051117,4112.0,Finch - Zum Steeles Station Stop WB,,,,0.0,,,1.0,43.742528,-79.647898
511-zum-steeles-westbound-511a-zum-steeles-west-br,Goreway - Zum Steeles Station Stop WB,5,25,-8867588.6304,5424189.8258,2203.0,00051115,1080.0,Goreway - Zum Steeles Station Stop WB,,,,0.0,,,1.0,43.732831,-79.658904
511-zum-steeles-westbound-511a-zum-steeles-west-br,Airport Road - Zum Steeles Station Stop WB,6,25,-8868818.0429,5422720.3621,2201.0,00051113,1108.0,Airport Road - Zum Steeles Station Stop WB,,,,0.0,,,1.0,43.723292,-79.669948
511-zum-steeles-westbound-511a-zum-steeles-west-br,Torbram - Zum Steeles Station Stop WB,7,25,-8869987.6768,5421293.6395,2199.0,00051111,1110.0,Torbram - Zum Steeles Station Stop WB,,,,0.0,,,1.0,43.714029,-79.680455
511-zum-steeles-westbound-511a-zum-steeles-west-br,Bramalea GO Station-Route 11/11A/511/A/C WB Stop,8,25,-8871290.4488,5419440.6003,2765.0,22080108,4290.0,Bramalea GO Station-Route 11/11A/511/A/C WB Stop,,,,0.0,,,1.0,43.701996,-79.692158
511-zum-steeles-westbound-511a-zum-steeles-west-br,Dixie - Zum Steeles Station Stop WB,9,25,-8872402.3079,5418309.2173,2197.0,00051107,1116.0,Dixie - Zum Steeles Station Stop WB,,,,0.0,,,1.0,43.694648,-79.702146
511-zum-steeles-westbound-511a-zum-steeles-west-br,West Drive - Zum Steeles Station Stop WB,10,25,-8872957.4582,5417603.6359,2195.0,00051105,1118.0,West Drive - Zum Steeles Station Stop WB,,,,0.0,,,1.0,43.690065,-79.707133
511-zum-steeles-westbound-511a-zum-steeles-west-br,Rutherford - Zum Steeles Station Stop WB,11,25,-8874150.3578,5416102.434,2193.0,00051103,1120.0,Rutherford - Zum Steeles Station Stop WB,,,,0.0,,,1.0,43.680313,-79.717849
511-zum-steeles-westbound-511a-zum-steeles-west-br,Kennedy - Zum Steeles Station Stop WB,12,25,-8874785.1016,5415303.75,2191.0,00051101,1123.0,Kennedy - Zum Steeles Station Stop WB,,,,0.0,,,1.0,43.675124,-79.723551
511-zum-steeles-westbound-511a-zum-steeles-west-br,Brampton Gateway Terminal Route 511/511A/511C EB,13,25,-8875943.8261,5413871.8636,1800.0,00030109,4206.0,Brampton Gateway Terminal Route 511/511A/511C EB,,,,0.0,place_GATE,,1.0,43.66582,-79.73396
511-zum-steeles-westbound-511a-zum-steeles-west-br,Brampton Gateway Terminal Route 11/51/511/511C WB,14,25,-8875955.96,5413810.3085,1796.0,00030102,4218.0,Brampton Gateway Terminal Route 11/51/511/511C WB,,,,0.0,place_GATE,,1.0,43.66542,-79.734069
511-zum-steeles-westbound-511a-zum-steeles-west-br,McMurchy - Zum Steeles Station Stop WB,15,25,-8876440.645,5413202.7821,591.0,00008550,1671.0,McMurchy - Zum Steeles Station Stop WB,,,,0.0,,,1.0,43.661472,-79.738423
511-zum-steeles-westbound-511a-zum-steeles-west-br,Sheridan College Terminal - 11/51/511/511C EB,16,25,-8876785.5128,5412372.8067,2345.0,15033002,4225.0,Sheridan College Terminal - 11/51/511/511C EB,,,,0.0,place_SHER,,1.0,43.656078,-79.741521
511-zum-steeles-westbound-511a-zum-steeles-west-br,Sheridan College Term - 3/3A/4/4A/11/51/511/104 WB,17,25,-8876819.2426,5412332.6485,2344.0,15033001,4224.0,Sheridan College Term - 3/3A/4/4A/11/51/511/104 WB,,,,0.0,place_SHER,,1.0,43.655817,-79.741824
511-zum-steeles-westbound-511a-zum-steeles-west-br,Chinguacousy - Zum Steeles Station Stop WB,18,25,-8878320.2746,5410878.9159,2347.0,15033004,3938.0,Chinguacousy - Zum Steeles Station Stop WB,,,,0.0,,,1.0,43.646368,-79.755308
511-zum-steeles-westbound-511a-zum-steeles-west-br,Financial - Zum Steeles Station Stop WB,19,25,-8880105.394,5408632.9955,115.0,00001500,1138.0,Financial - Zum Steeles Station Stop WB,,,,0.0,,,1.0,43.631767,-79.771344
511-zum-steeles-westbound-511a-zum-steeles-west-br,Mississauga Road - Zum Steeles Station Stop WB,20,25,-8880721.6587,5407873.8652,116.0,00001508,3690.0,Mississauga Road - Zum Steeles Station Stop WB,,,,0.0,,,1.0,43.626831,-79.77688
511-zum-steeles-westbound-511a-zum-steeles-west-br,Rivermont - Zum Steeles Station Stop WB,21,25,-8881293.7295,5407136.3259,2350.0,15033007,3939.0,Rivermont - Zum Steeles Station Stop WB,,,,0.0,,,1.0,43.622035,-79.782019
511-zum-steeles-westbound-511a-zum-steeles-west-br,Heritage - Zum Steeles Station Stop WB,22,25,-8881889.5115,5406390.3884,45.0,00000466,3692.0,Heritage - Zum Steeles Station Stop WB,,,,0.0,,,1.0,43.617184,-79.787371
511-zum-steeles-westbound-511a-zum-steeles-west-br,Winston Churchill - Zum Steeles Station Stop WB,23,25,-8882954.505,5404793.5372,46.0,00000468,3693.0,Winston Churchill - Zum Steeles Station Stop WB,,,,0.0,,,1.0,43.606798,-79.796938
511-zum-steeles-westbound-511a-zum-steeles-west-br,Argentia - Zum Steeles Stop WB,24,25,-8881732.3283,5403139.1667,49.0,00000475,6196.0,Argentia - Zum Steeles Stop WB,,,,0.0,,,1.0,43.596036,-79.785959
511-zum-steeles-westbound-511a-zum-steeles-west-br,Lisgar GO Station - Route 11/511 Stop,25,25,-8882006.3969,5402492.0719,2004.0,00044406,6195.0,Lisgar GO Station - Route 11/511 Stop,,,,0.0,place_LISGO,,1.0,43.591826,-79.788421
561-zum-queen-west-eb,Mount Pleasant GO Station - Route 1 / 561 Stop,1,10,-8885836.4553,5415249.881,2375.0,15090711,2315.0,Mount Pleasant GO Station - Route 1 / 561 Stop,,,,0.0,place_MPGO,,1.0,43.674774,-79.822827
561-zum-queen-west-eb,Bovaird - Zum Queen West Station Stop SB,2,10,-8886526.0796,5413960.3497,2528.0,16090501,2807.0,Bovaird - Zum Queen West Station Stop SB,,,,0.0,,,1.0,43.666395,-79.829022
561-zum-queen-west-eb,Williams - Zum Queen West Station Stop SB,3,10,-8885326.5007,5412720.0825,2436.0,15090804,1007.0,Williams - Zum Queen West Station Stop SB,,,,0.0,,,1.0,43.658335,-79.818246
561-zum-queen-west-eb,Mississauga Rd - Zum Queen West Station Stop EB,4,10,-8883409.5791,5411193.9821,2529.0,16090502,2808.0,Mississauga Rd - Zum Queen West Station Stop EB,,,,0.0,,,1.0,43.648416,-79.801026
561-zum-queen-west-eb,Creditview - Zum Queen West Station Stop EB,5,10,-8882454.3466,5412434.9677,2240.0,00092485,3819.0,Creditview - Zum Queen West Station Stop EB,,,,0.0,,,1.0,43.656482,-79.792445
561-zum-queen-west-eb,James Potter - Zum Queen West Station Stop EB,6,10,-8881656.4084,5413428.8302,2242.0,00092495,3821.0,James Potter - Zum Queen West Station Stop EB,,,,0.0,,,1.0,43.662941,-79.785277
561-zum-queen-west-eb,Chinguacousy - Zum Queen West Station Stop EB,7,10,-8881164.5989,5414030.3698,1190.0,00016170,2401.0,Chinguacousy - Zum Queen West Station Stop EB,,,,0.0,,,1.0,43.66685,-79.780859
561-zum-queen-west-eb,McLaughlin - Zum Queen West Station Stop EB,8,10,-8880074.1132,5415365.6229,2236.0,00092465,3824.0,McLaughlin - Zum Queen West Station Stop EB,,,,0.0,,,1.0,43.675526,-79.771063
561-zum-queen-west-eb,McMurchy - Zum Queen West Station Stop EB,9,10,-8879455.7334,5416154.7688,544.0,00007620,1606.0,McMurchy - Zum Queen West Station Stop EB,,,,0.0,,,0.0,43.680653,-79.765508
561-zum-queen-west-eb,Downtown Terminal Route 1/1A WB /561 Stop,10,10,-8879178.9932,5417115.1643,2086.0,00045510,3548.0,Downtown Terminal Route 1/1A WB /561 Stop,,,,0.0,place_4CRN,,1.0,43.686892,-79.763022
561-zum-queen-west-wb,Downtown Terminal Route 1/1A WB /561 Stop,1,10,-8879178.9932,5417115.1643,2086.0,00045510,3548.0,Downtown Terminal Route 1/1A WB /561 Stop,,,,0.0,place_4CRN,,1.0,43.686892,-79.763022
561-zum-queen-west-wb,McMurchy - Zum Queen West Station Stop WB,2,10,-8879514.9554,5416126.9082,579.0,00008370,1657.0,McMurchy - Zum Queen West Station Stop WB,,,,0.0,,,1.0,43.680472,-79.76604
561-zum-queen-west-wb,McLaughlin - Zum Queen West Station Stop WB,3,10,-8880100.6072,5415398.8681,582.0,00008400,1660.0,McLaughlin - Zum Queen West Station Stop WB,,,,0.0,,,1.0,43.675742,-79.771301
561-zum-queen-west-wb,Chinguacousy - Zum Queen West Station Stop WB,4,10,-8881306.5313,5413926.3402,2234.0,00092000,3774.0,Chinguacousy - Zum Queen West Station Stop WB,,,,0.0,,,1.0,43.666174,-79.782134
561-zum-queen-west-wb,James Potter - Zum Queen West Station Stop WB,5,10,-8881705.2777,5413416.8275,2221.0,00091360,3804.0,James Potter - Zum Queen West Station Stop WB,,,,0.0,,,1.0,43.662863,-79.785716
561-zum-queen-west-wb,Creditview - Zum Queen West Station Stop WB,6,10,-8882497.4272,5412434.0445,2223.0,00091370,3806.0,Creditview - Zum Queen West Station Stop WB,,,,0.0,,,1.0,43.656476,-79.792832
561-zum-queen-west-wb,Mississauga Rd - Zum Queen West Station Stop WB,7,10,-8883496.0743,5411175.0594,2530.0,16090503,2809.0,Mississauga Rd - Zum Queen West Station Stop WB,,,,0.0,,,1.0,43.648293,-79.801803
561-zum-queen-west-wb,Williams - Zum Queen West Station Stop NB,8,10,-8885299.8954,5412764.5507,2456.0,15090826,1269.0,Williams - Zum Queen West Station Stop NB,,,,0.0,,,1.0,43.658624,-79.818007
561-zum-queen-west-wb,Bovaird - Zum Queen West Station Stop EB,9,10,-8886506.5987,5414135.3239,2531.0,16090504,2810.0,Bovaird - Zum Queen West Station Stop EB,,,,0.0,,,1.0,43.667532,-79.828847
561-zum-queen-west-wb,Mount Pleasant GO Station - Route 1 / 561 Stop,10,10,-8885836.4553,5415249.881,2375.0,15090711,2315.0,Mount Pleasant GO Station - Route 1 / 561 Stop,,,,0.0,place_MPGO,,1.0,43.674774,-79.822827
1-queen-east-1-queen-east-to-downtown-terminal-dow,Mount Pleasant GO Station - Route 1 / 561 Stop,1,97,-8885836.4553,5415249.881,2375.0,15090711,2315.0,Mount Pleasant GO Station - Route 1 / 561 Stop,,,,0.0,place_MPGO,,1.0,43.674774,-79.822827
1-queen-east-1-queen-east-to-downtown-terminal-dow,Bovaird Dr w/of Creditview Rd,2,97,-8886155.497,5414645.184,2755.0,22010300,4276.0,Bovaird Dr w/of Creditview Rd,,,,0.0,,,1.0,43.670845,-79.825693
1-queen-east-1-queen-east-to-downtown-terminal-dow,Bovaird - Zum Queen West Station Stop SB,3,97,-8886526.0796,5413960.3497,2528.0,16090501,2807.0,Bovaird - Zum Queen West Station Stop SB,,,,0.0,,,1.0,43.666395,-79.829022
1-queen-east-1-queen-east-to-downtown-terminal-dow,Williams - Zum Queen West Station Stop SB,4,97,-8885326.5007,5412720.0825,2436.0,15090804,1007.0,Williams - Zum Queen West Station Stop SB,,,,0.0,,,1.0,43.658335,-79.818246
1-queen-east-1-queen-east-to-downtown-terminal-dow,Mississauga Rd opp Credit Ridge Commons,5,97,-8884961.5954,5412350.4966,2437.0,15090805,1091.0,Mississauga Rd opp Credit Ridge Commons,,,,0.0,,,0.0,43.655933,-79.814968
1-queen-east-1-queen-east-to-downtown-terminal-dow,Mississauga Rd s/of Settlers Field Rd,6,97,-8884607.8221,5411999.0806,2438.0,15090806,1092.0,Mississauga Rd s/of Settlers Field Rd,,,,0.0,,,1.0,43.653649,-79.81179
1-queen-east-1-queen-east-to-downtown-terminal-dow,Mississauga Rd s/of Ostrander Blvd,7,97,-8884108.9995,5411497.8282,2439.0,15090807,1093.0,Mississauga Rd s/of Ostrander Blvd,,,,0.0,,,1.0,43.650391,-79.807309
1-queen-east-1-queen-east-to-downtown-terminal-dow,Mississauga Rd - Zum Queen West Station Stop EB,8,97,-8883409.5791,5411193.9821,2529.0,16090502,2808.0,Mississauga Rd - Zum Queen West Station Stop EB,,,,0.0,,,1.0,43.648416,-79.801026
1-queen-east-1-queen-east-to-downtown-terminal-dow,Queen St e/of Royal West Dr,9,97,-8883163.3404,5411522.7517,2233.0,00091690,3878.0,Queen St e/of Royal West Dr,,,,0.0,,,1.0,43.650553,-79.798814
1-queen-east-1-queen-east-to-downtown-terminal-dow,Queen St opp Elbern Markell Dr,10,97,-8882954.2824,5411793.3761,2238.0,00092475,3817.0,Queen St opp Elbern Markell Dr,,,,0.0,,,1.0,43.652312,-79.796936
1-queen-east-1-queen-east-to-downtown-terminal-dow,Queen St W w/of Links Lane,11,97,-8882784.6315,5412005.6964,2239.0,00092480,3818.0,Queen St W w/of Links Lane,,,,0.0,,,1.0,43.653692,-79.795412
1-queen-east-1-queen-east-to-downtown-terminal-dow,Creditview - Zum Queen West Station Stop EB,12,97,-8882454.3466,5412434.9677,2240.0,00092485,3819.0,Creditview - Zum Queen West Station Stop EB,,,,0.0,,,1.0,43.656482,-79.792445
1-queen-east-1-queen-east-to-downtown-terminal-dow,Queen St W w/of Angelgate Rd,13,97,-8881990.2556,5413011.2072,2241.0,00092490,3820.0,Queen St W w/of Angelgate Rd,,,,0.0,,,1.0,43.660227,-79.788276
1-queen-east-1-queen-east-to-downtown-terminal-dow,James Potter - Zum Queen West Station Stop EB,14,97,-8881656.4084,5413428.8302,2242.0,00092495,3821.0,James Potter - Zum Queen West Station Stop EB,,,,0.0,,,1.0,43.662941,-79.785277
1-queen-east-1-queen-east-to-downtown-terminal-dow,Queen St w/of Chinguacousy Rd,15,97,-8881362.4137,5413796.7665,2358.0,15051807,3950.0,Queen St w/of Chinguacousy Rd,,,,0.0,,,1.0,43.665332,-79.782636
1-queen-east-1-queen-east-to-downtown-terminal-dow,Chinguacousy - Zum Queen West Station Stop EB,16,97,-8881164.5989,5414030.3698,1190.0,00016170,2401.0,Chinguacousy - Zum Queen West Station Stop EB,,,,0.0,,,1.0,43.66685,-79.780859
1-queen-east-1-queen-east-to-downtown-terminal-dow,Queen St w/of Lockwood Rd,17,97,-8880954.3164,5414296.7586,1145.0,00015620,2348.0,Queen St w/of Lockwood Rd,,,,0.0,,,1.0,43.668581,-79.77897
1-queen-east-1-queen-east-to-downtown-terminal-dow,Queen St W w/of Drinkwater Rd,18,97,-8880764.0714,5414526.9887,2219.0,00091100,3524.0,Queen St W w/of Drinkwater Rd,,,,0.0,,,1.0,43.670077,-79.777261
1-queen-east-1-queen-east-to-downtown-terminal-dow,Queen St W w/of Academic Dr,19,97,-8880481.2086,5414865.7268,2237.0,00092470,3823.0,Queen St W w/of Academic Dr,,,,0.0,,,1.0,43.672278,-79.77472
1-queen-east-1-queen-east-to-downtown-terminal-dow,McLaughlin - Zum Queen West Station Stop EB,20,97,-8880074.1132,5415365.6229,2236.0,00092465,3824.0,McLaughlin - Zum Queen West Station Stop EB,,,,0.0,,,1.0,43.675526,-79.771063
1-queen-east-1-queen-east-to-downtown-terminal-dow,Major William Sharpe Dr e/of Chinguacousy Rd,21,97,-8882692.3476,5415560.7867,532.0,00007455,1593.0,Major William Sharpe Dr e/of Chinguacousy Rd,,,,0.0,,,1.0,43.676794,-79.794583
1-queen-east-1-queen-east-to-downtown-terminal-dow,Major William Sharpe Dr w/of Alloway Gate,22,97,-8882500.4328,5415714.8582,533.0,00007460,1594.0,Major William Sharpe Dr w/of Alloway Gate,,,,0.0,,,1.0,43.677795,-79.792859
1-queen-east-1-queen-east-to-downtown-terminal-dow,Major William Sharpe Dr s/of Castlehill Rd,23,97,-8882275.6788,5415736.4069,534.0,00007470,1595.0,Major William Sharpe Dr s/of Castlehill Rd,,,,0.0,,,1.0,43.677935,-79.79084
1-queen-east-1-queen-east-to-downtown-terminal-dow,Major William Sharpe Dr n/of Murdoch Dr,24,97,-8882097.4563,5415602.1903,535.0,00007480,1596.0,Major William Sharpe Dr n/of Murdoch Dr,,,,0.0,,,1.0,43.677063,-79.789239
1-queen-east-1-queen-east-to-downtown-terminal-dow,Major William Sharpe Dr at Flowertown Ave,25,97,-8881958.0843,5415407.3334,536.0,00007490,1597.0,Major William Sharpe Dr at Flowertown Ave,,,,0.0,,,0.0,43.675797,-79.787987
1-queen-east-1-queen-east-to-downtown-terminal-dow,Flowertown Ave w/of Phelps Dr,26,97,-8881724.536,5415519.999,537.0,00007500,1598.0,Flowertown Ave w/of Phelps Dr,,,,0.0,,,1.0,43.676529,-79.785889
1-queen-east-1-queen-east-to-downtown-terminal-dow,Flowertown Ave w/of Grange St,27,97,-8881549.0965,5415706.2387,538.0,00007510,1599.0,Flowertown Ave w/of Grange St,,,,0.0,,,1.0,43.677739,-79.784313
1-queen-east-1-queen-east-to-downtown-terminal-dow,Flowertown Ave w/of Cumbrian Crt,28,97,-8881352.2836,5415938.9668,539.0,00007520,1600.0,Flowertown Ave w/of Cumbrian Crt,,,,0.0,,,0.0,43.679251,-79.782545
1-queen-east-1-queen-east-to-downtown-terminal-dow,Flowertown Ave e/of Fairfield Ave,29,97,-8881150.2387,5416187.2473,540.0,00007530,1601.0,Flowertown Ave e/of Fairfield Ave,,,,0.0,,,0.0,43.680864,-79.78073
1-queen-east-1-queen-east-to-downtown-terminal-dow,Flowertown Ave w/of McLaughlin Rd N,30,97,-8880986.7104,5416383.9678,541.0,00007535,1602.0,Flowertown Ave w/of McLaughlin Rd N,,,,0.0,,,1.0,43.682142,-79.779261
1-queen-east-1-queen-east-to-downtown-terminal-dow,McLaughlin Rd N n/of Campbell Dr,31,97,-8880835.2046,5416261.1324,1053.0,00014510,2230.0,McLaughlin Rd N n/of Campbell Dr,,,,0.0,,,1.0,43.681344,-79.7779
1-queen-east-1-queen-east-to-downtown-terminal-dow,McLaughlin Rd N opp Amsterdam Cres,32,97,-8880646.1841,5416069.0323,1054.0,00014520,2231.0,McLaughlin Rd N opp Amsterdam Cres,,,,0.0,,,1.0,43.680096,-79.776202
1-queen-east-1-queen-east-to-downtown-terminal-dow,McLaughlin Rd opp Denison Ave,33,97,-8880410.4094,5415829.0667,1055.0,00014530,2232.0,McLaughlin Rd opp Denison Ave,,,,0.0,,,1.0,43.678537,-79.774084
1-queen-east-1-queen-east-to-downtown-terminal-dow,McLaughlin Rd N n/of Horwood Dr,34,97,-8880292.0768,5415707.3162,1056.0,00014540,2233.0,McLaughlin Rd N n/of Horwood Dr,,,,0.0,,,1.0,43.677746,-79.773021
1-queen-east-1-queen-east-to-downtown-terminal-dow,McLaughlin Rd btwn Horwood Dr &amp; Queen St,35,97,,,,,,,,,,,,,,,
1-queen-east-1-queen-east-to-downtown-terminal-dow,McLaughlin Rd S at FCCC Entrance,36,97,-8879793.5881,5415178.7743,1058.0,00014560,2235.0,McLaughlin Rd S at FCCC Entrance,,,,0.0,,,1.0,43.674312,-79.768543
1-queen-east-1-queen-east-to-downtown-terminal-dow,Flower City Community Campus Route 1/1A/3A/57 Stop,37,97,-8879937.5242,5414725.6746,1006.0,00013930,2170.0,Flower City Community Campus Route 1/1A/3A/57 Stop,,,,0.0,,,1.0,43.671368,-79.769836
1-queen-east-1-queen-east-to-downtown-terminal-dow,McLaughlin Rd S n/of Bufford Dr,38,97,-8879797.039,5415237.4142,1007.0,00013935,2171.0,McLaughlin Rd S n/of Bufford Dr,,,,0.0,,,1.0,43.674693,-79.768574
1-queen-east-1-queen-east-to-downtown-terminal-dow,McLaughlin Rd S at Queen St W,39,97,-8879965.4654,5415413.6439,1008.0,00013940,2172.0,McLaughlin Rd S at Queen St W,,,,0.0,,,1.0,43.675838,-79.770087
1-queen-east-1-queen-east-to-downtown-terminal-dow,Queen St W opp Mercer Dr,40,97,-8879803.2729,5415720.5532,542.0,00007600,1604.0,Queen St W opp Mercer Dr,,,,0.0,,,1.0,43.677832,-79.76863
1-queen-east-1-queen-east-to-downtown-terminal-dow,Queen St W e/of Haggart Ave S,41,97,-8879631.1729,5415936.3501,543.0,00007610,1605.0,Queen St W e/of Haggart Ave S,,,,0.0,,,1.0,43.679234,-79.767084
1-queen-east-1-queen-east-to-downtown-terminal-dow,McMurchy - Zum Queen West Station Stop EB,42,97,-8879455.7334,5416154.7688,544.0,00007620,1606.0,McMurchy - Zum Queen West Station Stop EB,,,,0.0,,,0.0,43.680653,-79.765508
1-queen-east-1-queen-east-to-downtown-terminal-dow,Queen St W at Mill St S,43,97,-8879183.8912,5416498.6463,545.0,00007630,1607.0,Queen St W at Mill St S,,,,0.0,,,1.0,43.682887,-79.763066
1-queen-east-1-queen-east-to-downtown-terminal-dow,Queen St W at Elizabeth St S,44,97,-8879066.7831,5416649.8087,546.0,00007640,1608.0,Queen St W at Elizabeth St S,,,,0.0,,,1.0,43.683869,-79.762014
1-queen-east-1-queen-east-to-downtown-terminal-dow,George St n/of Diplock Lane,45,97,-8879037.3948,5416943.8282,547.0,00007650,1609.0,George St n/of Diplock Lane,,,,0.0,,,0.0,43.685779,-79.76175
1-queen-east-1-queen-east-to-downtown-terminal-dow,Downtown Terminal Route 1/1A EB,46,97,-8879176.6555,5417091.6112,2085.0,00045505,3547.0,Downtown Terminal Route 1/1A EB,,,,0.0,place_4CRN,,1.0,43.686739,-79.763001
1-queen-east-1-queen-east-to-downtown-terminal-dow,Queen St E e/of Chapel St,47,97,-8878635.7541,5417193.9831,548.0,00007675,1612.0,Queen St E e/of Chapel St,,,,0.0,,,1.0,43.687404,-79.758142
1-queen-east-1-queen-east-to-downtown-terminal-dow,Queen St E w/of James St,48,97,-8878421.0188,5417458.6158,549.0,00007680,1613.0,Queen St E w/of James St,,,,0.0,,,1.0,43.689123,-79.756213
1-queen-east-1-queen-east-to-downtown-terminal-dow,Centre - Zum Queen Station Stop EB,49,97,-8878216.1909,5417740.3448,2157.0,00050102,4021.0,Centre - Zum Queen Station Stop EB,,,,0.0,,,1.0,43.690953,-79.754373
1-queen-east-1-queen-east-to-downtown-terminal-dow,Queen St E at Trueman St,50,97,-8878011.8083,5418008.3802,550.0,00007700,1615.0,Queen St E at Trueman St,,,,0.0,,,1.0,43.692694,-79.752537
1-queen-east-1-queen-east-to-downtown-terminal-dow,Queen St E opp Beech St,51,97,-8877917.1867,5418125.3884,551.0,00007710,1616.0,Queen St E opp Beech St,,,,0.0,,,1.0,43.693454,-79.751687
1-queen-east-1-queen-east-to-downtown-terminal-dow,Kennedy - Zum Queen Station Stop EB,52,97,-8877602.8205,5418512.2956,2158.0,00050104,4022.0,Kennedy - Zum Queen Station Stop EB,,,,0.0,,,1.0,43.695967,-79.748863
1-queen-east-1-queen-east-to-downtown-terminal-dow,Queen St E btwn Kennedy Rd N &amp; Hansen Rd,53,97,,,,,,,,,,,,,,,
1-queen-east-1-queen-east-to-downtown-terminal-dow,Queen St E e/of Hansen Rd,54,97,-8877216.7645,5418982.6722,553.0,00007740,1619.0,Queen St E e/of Hansen Rd,,,,0.0,,,1.0,43.699022,-79.745395
1-queen-east-1-queen-east-to-downtown-terminal-dow,Queen St btwn Hansen Rd &amp; Rutherford Rd,55,97,,,,,,,,,,,,,,,
1-queen-east-1-queen-east-to-downtown-terminal-dow,Rutherford - Zum Queen Station Stop EB,56,97,-8876908.2982,5419356.989,2159.0,00050106,4023.0,Rutherford - Zum Queen Station Stop EB,,,,0.0,,,1.0,43.701453,-79.742624
1-queen-east-1-queen-east-to-downtown-terminal-dow,Queen St E w/of Hwy 410 Ramp ( at Burger King ),57,97,-8876692.7837,5419621.3758,1568.0,00023040,2939.0,Queen St E w/of Hwy 410 Ramp ( at Burger King ),,,,0.0,,,1.0,43.70317,-79.740688
1-queen-east-1-queen-east-to-downtown-terminal-dow,West Drive s/of Queen St E,58,97,-8875870.4666,5420377.4682,555.0,00007790,1622.0,West Drive s/of Queen St E,,,,0.0,,,1.0,43.70808,-79.733301
1-queen-east-1-queen-east-to-downtown-terminal-dow,West Dr n/of Clark Blvd (100 West Dr),59,97,-8875462.3693,5420000.4922,556.0,00007800,1624.0,West Dr n/of Clark Blvd (100 West Dr),,,,0.0,,,1.0,43.705632,-79.729635
1-queen-east-1-queen-east-to-downtown-terminal-dow,Clark Blvd e/of West Dr,60,97,-8875161.918,5419857.2823,17.0,00000200,1021.0,Clark Blvd e/of West Dr,,,,0.0,,,1.0,43.704702,-79.726936
1-queen-east-1-queen-east-to-downtown-terminal-dow,Clark Blvd at 185 Clark Blvd,61,97,-8874949.2978,5420124.3012,18.0,00000210,1022.0,Clark Blvd at 185 Clark Blvd,,,,0.0,,,1.0,43.706436,-79.725026
1-queen-east-1-queen-east-to-downtown-terminal-dow,Clark Blvd at Terese Rd,62,97,-8874843.7669,5420554.566,19.0,00000220,1023.0,Clark Blvd at Terese Rd,,,,0.0,,,1.0,43.70923,-79.724078
1-queen-east-1-queen-east-to-downtown-terminal-dow,Clark Blvd at Braemar Dr,63,97,-8874558.1211,5420896.6054,21.0,00000230,1025.0,Clark Blvd at Braemar Dr,,,,0.0,,,1.0,43.711451,-79.721512
1-queen-east-1-queen-east-to-downtown-terminal-dow,Clark Blvd at Briar Path,64,97,-8874395.1494,5421168.8907,22.0,00000235,3615.0,Clark Blvd at Briar Path,,,,0.0,,,1.0,43.713219,-79.720048
1-queen-east-1-queen-east-to-downtown-terminal-dow,Clark Blvd w/of Central Park Dr,65,97,-8874168.6142,5421529.8968,712.0,00009875,3591.0,Clark Blvd w/of Central Park Dr,,,,0.0,,,1.0,43.715563,-79.718013
1-queen-east-1-queen-east-to-downtown-terminal-dow,Central Park Dr n/of Clark Blvd,66,97,-8873979.4824,5421817.2949,714.0,00009885,3592.0,Central Park Dr n/of Clark Blvd,,,,0.0,,,1.0,43.717429,-79.716314
1-queen-east-1-queen-east-to-downtown-terminal-dow,Knightsbridge Rd w/of Central Park Drive,67,97,-8874161.935,5421837.3176,185.0,00002410,3540.0,Knightsbridge Rd w/of Central Park Drive,,,,0.0,,,1.0,43.717559,-79.717953
1-queen-east-1-queen-east-to-downtown-terminal-dow,Team Canada Dr btwn Knightsbridge &amp; Peel Cente Dr,68,97,,,,,,,,,,,,,,,
1-queen-east-1-queen-east-to-downtown-terminal-dow,Bramalea Terminal Route 1/1A EB - Departure,69,97,-8874480.6427,5422022.4526,2089.0,00045533,4004.0,Bramalea Terminal Route 1/1A EB - Departure,,,,0.0,place_CITY,,1.0,43.718761,-79.720816
1-queen-east-1-queen-east-to-downtown-terminal-dow,Knightsbridge Rd btwn Central Park &amp; Kings Cross,70,97,,,,,,,,,,,,,,,
1-queen-east-1-queen-east-to-downtown-terminal-dow,Knightsbridge Rd at Bramalea Rd,71,97,-8873747.6039,5422372.556,295.0,00003910,1345.0,Knightsbridge Rd at Bramalea Rd,,,,0.0,,,1.0,43.721034,-79.714231
1-queen-east-1-queen-east-to-downtown-terminal-dow,Bramalea Rd n/of Fleetwood Cres,72,97,-8873712.3156,5422515.4969,1496.0,00020200,2785.0,Bramalea Rd n/of Fleetwood Cres,,,,0.0,,,1.0,43.721962,-79.713914
1-queen-east-1-queen-east-to-downtown-terminal-dow,Bramalea Rd at Queen St E,73,97,-8874015.5499,5422839.5865,296.0,00003930,1347.0,Bramalea Rd at Queen St E,,,,0.0,,,1.0,43.724066,-79.716638
1-queen-east-1-queen-east-to-downtown-terminal-dow,Bramalea - Zum Queen Station Stop EB,74,97,-8874008.6481,5422979.1457,2162.0,00050112,4026.0,Bramalea - Zum Queen Station Stop EB,,,,0.0,,,1.0,43.724972,-79.716576
1-queen-east-1-queen-east-to-downtown-terminal-dow,Finchgate - Zum Queen Station Stop EB,75,97,-8873562.1456,5423530.7796,2163.0,00050114,4027.0,Finchgate - Zum Queen Station Stop EB,,,,0.0,,,1.0,43.728553,-79.712565
1-queen-east-1-queen-east-to-downtown-terminal-dow,Torbram - Zum Queen Station Stop EB,76,97,-8872819.088,5424452.8104,2164.0,00050116,4028.0,Torbram - Zum Queen Station Stop EB,,,,0.0,,,1.0,43.734538,-79.70589
1-queen-east-1-queen-east-to-downtown-terminal-dow,Queen St E btwn Torbram Rd &amp; Gateway Blvd,77,97,,,,,,,,,,,,,,,
1-queen-east-1-queen-east-to-downtown-terminal-dow,Gateway - Zum Queen Station Stop EB,78,97,-8872327.9464,5425044.7457,2165.0,00050118,4029.0,Gateway - Zum Queen Station Stop EB,,,,0.0,,,1.0,43.73838,-79.701478
1-queen-east-1-queen-east-to-downtown-terminal-dow,Queen St btwn Gateway Blvd &amp; Airport Rd,79,97,,,,,,,,,,,,,,,
1-queen-east-1-queen-east-to-downtown-terminal-dow,Airport Road - Zum Queen Station Stop EB,80,97,-8871613.2753,5425894.1977,2166.0,00050120,4030.0,Airport Road - Zum Queen Station Stop EB,,,,0.0,,,1.0,43.743893,-79.695058
1-queen-east-1-queen-east-to-downtown-terminal-dow,Delta Park Blvd s/of Queen St - 1A,81,97,-8871258.0548,5426149.8344,557.0,00007970,4082.0,Delta Park Blvd s/of Queen St - 1A,,,,0.0,,,0.0,43.745552,-79.691867
1-queen-east-1-queen-east-to-downtown-terminal-dow,Delta Park Blvd at 170 Delta Park Blvd - 1A,82,97,-8871119.0168,5425863.0718,558.0,00007980,1629.0,Delta Park Blvd at 170 Delta Park Blvd - 1A,,,,0.0,,,1.0,43.743691,-79.690618
1-queen-east-1-queen-east-to-downtown-terminal-dow,Delta Park Blvd at Nevets Rd - 1A,83,97,-8871043.2082,5425689.1079,559.0,00007990,1630.0,Delta Park Blvd at Nevets Rd - 1A,,,,0.0,,,0.0,43.742562,-79.689937
1-queen-east-1-queen-east-to-downtown-terminal-dow,Nevets Rd at Airport - 1A,84,97,-8871277.8697,5425486.9502,560.0,00007995,1631.0,Nevets Rd at Airport - 1A,,,,0.0,,,1.0,43.74125,-79.692045
1-queen-east-1-queen-east-to-downtown-terminal-dow,Coventry Rd w/of Airport Rd - 1A,85,97,-8871383.4006,5425388.8006,561.0,00008000,1632.0,Coventry Rd w/of Airport Rd - 1A,,,,0.0,,,1.0,43.740613,-79.692993
1-queen-east-1-queen-east-to-downtown-terminal-dow,Queen St E e/of Delta Park Blvd,86,97,-8871274.9754,5426296.8403,1498.0,00020300,2791.0,Queen St E e/of Delta Park Blvd,,,,0.0,,,1.0,43.746506,-79.692019
1-queen-east-1-queen-east-to-downtown-terminal-dow,Queen St w/of Auction Lane,87,97,-8870834.7068,5426809.376,1499.0,00020310,2792.0,Queen St w/of Auction Lane,,,,0.0,,,1.0,43.749832,-79.688064
1-queen-east-1-queen-east-to-downtown-terminal-dow,Goreway - Zum Queen Station Stop EB,88,97,-8870339.335,5427387.9005,2167.0,00050122,4031.0,Goreway - Zum Queen Station Stop EB,,,,0.0,,,1.0,43.753586,-79.683614
1-queen-east-1-queen-east-to-downtown-terminal-dow,Ebenezer Rd e/of McVean Dr,89,97,-8869187.401,5428834.2166,2016.0,00044480,3616.0,Ebenezer Rd e/of McVean Dr,,,,0.0,,,1.0,43.76297,-79.673266
1-queen-east-1-queen-east-to-downtown-terminal-dow,Ebenezer Rd at Don Minaker Dr,90,97,-8868984.0202,5429080.0697,2017.0,00044490,3410.0,Ebenezer Rd at Don Minaker Dr,,,,0.0,,,1.0,43.764565,-79.671439
1-queen-east-1-queen-east-to-downtown-terminal-dow,Ebenezer Rd at Attmar Dr,91,97,-8868659.4126,5429490.713,2018.0,00044500,3411.0,Ebenezer Rd at Attmar Dr,,,,0.0,,,1.0,43.767229,-79.668523
1-queen-east-1-queen-east-to-downtown-terminal-dow,Ebenezer Rd at Palleschi Dr,92,97,-8868313.7656,5429922.494,2019.0,00044510,3412.0,Ebenezer Rd at Palleschi Dr,,,,0.0,,,1.0,43.77003,-79.665418
1-queen-east-1-queen-east-to-downtown-terminal-dow,Ebenezer Rd at The Gore Rd,93,97,-8868114.8377,5430160.8223,2020.0,00044520,3413.0,Ebenezer Rd at The Gore Rd,,,,0.0,,,1.0,43.771576,-79.663631
1-queen-east-1-queen-east-to-downtown-terminal-dow,Ebenezer Rd e/of The Gore Rd,94,97,-8867960.5488,5430357.0701,2034.0,00044818,3664.0,Ebenezer Rd e/of The Gore Rd,,,,0.0,,,1.0,43.772849,-79.662245
1-queen-east-1-queen-east-to-downtown-terminal-dow,Ebenezer Rd w/of Nexus Ave,95,97,-8867804.9242,5430544.2262,2035.0,00044820,3446.0,Ebenezer Rd w/of Nexus Ave,,,,0.0,,,1.0,43.774063,-79.660847
1-queen-east-1-queen-east-to-downtown-terminal-dow,Ebenezer Rd at Maybrook Way,96,97,-8867468.2941,5430954.6264,2120.0,00047130,3564.0,Ebenezer Rd at Maybrook Way,,,,0.0,,,1.0,43.776725,-79.657823
1-queen-east-1-queen-east-to-downtown-terminal-dow,Hwy 50 s/of Ebenezer Rd,97,97,-8867145.2449,5431137.1694,2121.0,00047140,3565.0,Hwy 50 s/of Ebenezer Rd,,,,0.0,,,1.0,43.777909,-79.654921
1-queen-west-1-queen-west-to-bramalea-terminal-bra,Hwy 50 s/of Ebenezer Rd,1,86,-8867145.2449,5431137.1694,2121.0,00047140,3565.0,Hwy 50 s/of Ebenezer Rd,,,,0.0,,,1.0,43.777909,-79.654921
1-queen-west-1-queen-west-to-bramalea-terminal-bra,Highway 50 at 8950 Highway 50,2,86,-8867035.1499,5430868.5981,2122.0,00047143,3768.0,Highway 50 at 8950 Highway 50,,,,0.0,,,1.0,43.776167,-79.653932
1-queen-west-1-queen-west-to-bramalea-terminal-bra,Highway 50 s/of Fogal Rd,3,86,-8866843.4578,5430394.5319,2123.0,00047145,3769.0,Highway 50 s/of Fogal Rd,,,,0.0,,,1.0,43.773092,-79.65221
1-queen-west-1-queen-west-to-bramalea-terminal-bra,Highway 50 - Zum Queen Station Stop WB,4,86,-8866561.3742,5429473.9108,2171.0,00050150,4035.0,Highway 50 - Zum Queen Station Stop WB,,,,0.0,place_QU50-W,,1.0,43.76712,-79.649676
1-queen-west-1-queen-west-to-bramalea-terminal-bra,The Gore Rd n/of Queen St,5,86,-8867227.0647,5429369.3987,1297.0,00017550,2543.0,The Gore Rd n/of Queen St,,,,0.0,,,1.0,43.766442,-79.655656
1-queen-west-1-queen-west-to-bramalea-terminal-bra,The Gore Rd n/of Queen St,5,86,-8867279.7188,5429357.6836,1319.0,00017750,2572.0,The Gore Rd n/of Queen St,,,,0.0,,,1.0,43.766366,-79.656129
1-queen-west-1-queen-west-to-bramalea-terminal-bra,The Gore Rd s/of Fogal Rd,6,86,-8867616.9056,5429820.2891,1298.0,00017555,2544.0,The Gore Rd s/of Fogal Rd,,,,0.0,,,1.0,43.769367,-79.659158
1-queen-west-1-queen-west-to-bramalea-terminal-bra,Ebenezer Rd e/of Royal Country Dr,7,86,-8868279.9245,5430021.771,2533.0,16090506,2812.0,Ebenezer Rd e/of Royal Country Dr,,,,0.0,,,1.0,43.770674,-79.665114
1-queen-west-1-queen-west-to-bramalea-terminal-bra,Ebenezer Rd e/of Alfonso Cres,8,86,-8868626.5734,5429594.1475,2534.0,16090507,2813.0,Ebenezer Rd e/of Alfonso Cres,,,,0.0,,,1.0,43.7679,-79.668228
1-queen-west-1-queen-west-to-bramalea-terminal-bra,Ebenezer Rd e/of Don Minaker Dr,9,86,-8868950.5131,5429173.7885,2535.0,16090508,2814.0,Ebenezer Rd e/of Don Minaker Dr,,,,0.0,,,1.0,43.765173,-79.671138
1-queen-west-1-queen-west-to-bramalea-terminal-bra,McVean - Zum Queen Station Stop WB,10,86,-8869243.7286,5428611.9525,2173.0,00050154,4037.0,McVean - Zum Queen Station Stop WB,,,,0.0,,,1.0,43.761528,-79.673772
1-queen-west-1-queen-west-to-bramalea-terminal-bra,Goreway - Zum Queen Station Stop WB,11,86,-8870561.4174,5427214.2161,2174.0,00050156,4038.0,Goreway - Zum Queen Station Stop WB,,,,0.0,,,1.0,43.752459,-79.685609
1-queen-west-1-queen-west-to-bramalea-terminal-bra,Queen St e/of Sun Pac Blvd,12,86,-8870759.9001,5426981.0494,1522.0,00021135,2885.0,Queen St e/of Sun Pac Blvd,,,,0.0,,,1.0,43.750946,-79.687392
1-queen-west-1-queen-west-to-bramalea-terminal-bra,Queen St E at Maritime Ontario,13,86,-8871433.9396,5426191.5937,1523.0,00021137,2886.0,Queen St E at Maritime Ontario,,,,0.0,,,1.0,43.745823,-79.693447
1-queen-west-1-queen-west-to-bramalea-terminal-bra,Airport Road - Zum Queen Station Stop WB,14,86,-8871811.9806,5425747.9687,2175.0,00050158,4039.0,Airport Road - Zum Queen Station Stop WB,,,,0.0,,,1.0,43.742944,-79.696843
1-queen-west-1-queen-west-to-bramalea-terminal-bra,Queen St E at Canadian Tire,15,86,-8872131.6902,5425365.9967,1524.0,00021160,2888.0,Queen St E at Canadian Tire,,,,0.0,,,1.0,43.740465,-79.699715
1-queen-west-1-queen-west-to-bramalea-terminal-bra,Coventry Rd w/of Airport Rd - 1A,16,86,-8871383.4006,5425388.8006,561.0,00008000,1632.0,Coventry Rd w/of Airport Rd - 1A,,,,0.0,,,1.0,43.740613,-79.692993
1-queen-west-1-queen-west-to-bramalea-terminal-bra,Conventry Rd at Walker Dr,17,86,-8871646.8938,5425120.0885,562.0,00008020,1634.0,Conventry Rd at Walker Dr,,,,0.0,,,1.0,43.738869,-79.69536
1-queen-west-1-queen-west-to-bramalea-terminal-bra,Walker Dr at 299 Walker Dr ( Bell Building ) - 1A,18,86,-8871872.2044,5425177.0967,563.0,00008030,1635.0,Walker Dr at 299 Walker Dr ( Bell Building ) - 1A,,,,0.0,,,1.0,43.739239,-79.697384
1-queen-west-1-queen-west-to-bramalea-terminal-bra,Walker Rd at Gateway Blvd - 1A,19,86,-8872041.1874,5424972.9473,564.0,00008040,1636.0,Walker Rd at Gateway Blvd - 1A,,,,0.0,,,0.0,43.737914,-79.698902
1-queen-west-1-queen-west-to-bramalea-terminal-bra,Gateway Blvd at Queen St E - 1A,20,86,-8872200.9309,5425025.3323,565.0,00008050,1637.0,Gateway Blvd at Queen St E - 1A,,,,0.0,,,1.0,43.738254,-79.700337
1-queen-west-1-queen-west-to-bramalea-terminal-bra,Chrysler - Zum Queen Station Stop WB,21,86,-8872420.4529,5425016.0879,2176.0,00050160,4040.0,Chrysler - Zum Queen Station Stop WB,,,,0.0,,,1.0,43.738194,-79.702309
1-queen-west-1-queen-west-to-bramalea-terminal-bra,Queen St E w/of Tim Hortons (2433 Queen St E),22,86,-8872645.8749,5424747.0785,566.0,00008070,1638.0,Queen St E w/of Tim Hortons (2433 Queen St E),,,,0.0,,,0.0,43.736448,-79.704334
1-queen-west-1-queen-west-to-bramalea-terminal-bra,Torbram - Zum Queen Station Stop WB,23,86,-8873034.1573,5424273.4809,2177.0,00050162,4041.0,Torbram - Zum Queen Station Stop WB,,,,0.0,,,1.0,43.733374,-79.707822
1-queen-west-1-queen-west-to-bramalea-terminal-bra,Glenvale - Zum Queen Station Stop WB,24,86,-8873738.6983,5423403.0736,2178.0,00050164,4042.0,Glenvale - Zum Queen Station Stop WB,,,,0.0,,,1.0,43.727724,-79.714151
1-queen-west-1-queen-west-to-bramalea-terminal-bra,Bramalea Rd at Kensington Rd,25,86,-8873946.3092,5422714.5087,1526.0,00021210,2891.0,Bramalea Rd at Kensington Rd,,,,0.0,,,1.0,43.723254,-79.716016
1-queen-west-1-queen-west-to-bramalea-terminal-bra,Knightsbridge Rd w/of Bramalea Rd,26,86,-8873760.4056,5422398.125,292.0,00003864,1341.0,Knightsbridge Rd w/of Bramalea Rd,,,,0.0,,,1.0,43.7212,-79.714346
1-queen-west-1-queen-west-to-bramalea-terminal-bra,Knightsbridge Rd btwn Kings Cross &amp; Central Pk Dr,27,86,,,,,,,,,,,,,,,
1-queen-west-1-queen-west-to-bramalea-terminal-bra,Knightsbridge Rd w/of Central Park Drive,28,86,-8874161.935,5421837.3176,185.0,00002410,3540.0,Knightsbridge Rd w/of Central Park Drive,,,,0.0,,,1.0,43.717559,-79.717953
1-queen-west-1-queen-west-to-bramalea-terminal-bra,Team Canada Dr btwn Knightsbridge &amp; Peel Cente Dr,29,86,,,,,,,,,,,,,,,
1-queen-west-1-queen-west-to-bramalea-terminal-bra,Bramalea Terminal Route 1/1A WB - Departure,30,86,-8874438.3413,5422077.2854,2088.0,00045528,4001.0,Bramalea Terminal Route 1/1A WB - Departure,,,,0.0,place_CITY,,1.0,43.719117,-79.720436
1-queen-west-1-queen-west-to-bramalea-terminal-bra,Central Park Dr at Knightsbridge Rd,31,86,-8874157.1483,5421905.3951,184.0,00002390,1218.0,Central Park Dr at Knightsbridge Rd,,,,0.0,,,1.0,43.718001,-79.71791
1-queen-west-1-queen-west-to-bramalea-terminal-bra,Central Park Dr s/of Knightsbridge Rd,32,86,-8874029.6875,5421800.3526,716.0,00009895,3593.0,Central Park Dr s/of Knightsbridge Rd,,,,0.0,,,1.0,43.717319,-79.716765
1-queen-west-1-queen-west-to-bramalea-terminal-bra,Clark Blvd w/of Peel Centre Dr,33,86,-8874353.0706,5421336.763,711.0,00009867,3607.0,Clark Blvd w/of Peel Centre Dr,,,,0.0,,,1.0,43.714309,-79.71967
1-queen-west-1-queen-west-to-bramalea-terminal-bra,Clark Blvd e/of Dixie Rd,34,86,-8874658.1973,5420841.4717,2743.0,20090801,4263.0,Clark Blvd e/of Dixie Rd,,,,0.0,,,1.0,43.711093,-79.722411
1-queen-west-1-queen-west-to-bramalea-terminal-bra,Clark Blvd at Lisa St,35,86,-8874837.7557,5420634.3381,23.0,00000270,1028.0,Clark Blvd at Lisa St,,,,0.0,,,1.0,43.709748,-79.724024
1-queen-west-1-queen-west-to-bramalea-terminal-bra,Clark Blvd opp 185 Clark Blvd,36,86,-8875060.8399,5420033.6001,24.0,00000280,1029.0,Clark Blvd opp 185 Clark Blvd,,,,0.0,,,1.0,43.705847,-79.726028
1-queen-west-1-queen-west-to-bramalea-terminal-bra,Clark Blvd at West Dr,37,86,-8875192.8648,5419868.3694,25.0,00000290,1030.0,Clark Blvd at West Dr,,,,0.0,,,1.0,43.704774,-79.727214
1-queen-west-1-queen-west-to-bramalea-terminal-bra,West Dr at 83 West Dr,38,86,-8875424.632,5420012.1954,567.0,00008200,1641.0,West Dr at 83 West Dr,,,,0.0,,,1.0,43.705708,-79.729296
1-queen-west-1-queen-west-to-bramalea-terminal-bra,West Dr at 115 West Dr,39,86,-8875774.9545,5420338.0451,568.0,00008210,1642.0,West Dr at 115 West Dr,,,,0.0,,,1.0,43.707824,-79.732443
1-queen-west-1-queen-west-to-bramalea-terminal-bra,Laurelcrest - Zum Queen Station Stop WB,40,86,-8876094.998,5420454.4668,2181.0,00050170,4045.0,Laurelcrest - Zum Queen Station Stop WB,,,,0.0,,,1.0,43.70858,-79.735318
1-queen-west-1-queen-west-to-bramalea-terminal-bra,Queen St E w/of Hwy 410 (Petro Canada),41,86,-8876668.516,5419727.7793,1573.0,00023180,2954.0,Queen St E w/of Hwy 410 (Petro Canada),,,,0.0,,,1.0,43.703861,-79.74047
1-queen-west-1-queen-west-to-bramalea-terminal-bra,Rutherford - Zum Queen Station Stop WB,42,86,-8876962.2882,5419370.5392,2182.0,00050172,4046.0,Rutherford - Zum Queen Station Stop WB,,,,0.0,,,1.0,43.701541,-79.743109
1-queen-west-1-queen-west-to-bramalea-terminal-bra,Queen St E at 300 Queen St E,43,86,-8877133.6088,5419157.1257,569.0,00008245,1643.0,Queen St E at 300 Queen St E,,,,0.0,,,1.0,43.700155,-79.744648
1-queen-west-1-queen-west-to-bramalea-terminal-bra,Queen St E w/of Hansen Rd,44,86,-8877340.6631,5418905.3779,570.0,00008250,1644.0,Queen St E w/of Hansen Rd,,,,0.0,,,1.0,43.69852,-79.746508
1-queen-west-1-queen-west-to-bramalea-terminal-bra,Queen St E btwn Hansen Rd &amp; Kennedy Rd N,45,86,,,,,,,,,,,,,,,
1-queen-west-1-queen-west-to-bramalea-terminal-bra,Kennedy - Zum Queen Station Stop WB,46,86,-8877730.0587,5418419.9167,2183.0,00050174,4047.0,Kennedy - Zum Queen Station Stop WB,,,,0.0,,,1.0,43.695367,-79.750006
1-queen-west-1-queen-west-to-bramalea-terminal-bra,Queen St E at Beech St,47,86,-8877902.0473,5418200.0588,572.0,00008280,1647.0,Queen St E at Beech St,,,,0.0,,,1.0,43.693939,-79.751551
1-queen-west-1-queen-west-to-bramalea-terminal-bra,Queen St E at 164 Queen St,48,86,-8878067.2454,5417991.5989,573.0,00008290,1648.0,Queen St E at 164 Queen St,,,,0.0,,,1.0,43.692585,-79.753035
1-queen-west-1-queen-west-to-bramalea-terminal-bra,Centre - Zum Queen Station Stop WB,49,86,-8878259.7168,5417742.0383,2184.0,00050176,4048.0,Centre - Zum Queen Station Stop WB,,,,0.0,,,1.0,43.690964,-79.754764
1-queen-west-1-queen-west-to-bramalea-terminal-bra,Queen St E w/of Scott St,50,86,-8878428.1432,5417504.1845,574.0,00008310,1651.0,Queen St E w/of Scott St,,,,0.0,,,1.0,43.689419,-79.756277
1-queen-west-1-queen-west-to-bramalea-terminal-bra,Queen St E e/of Theatre Lane,51,86,-8878677.3875,5417177.819,575.0,00008320,1652.0,Queen St E e/of Theatre Lane,,,,0.0,,,1.0,43.687299,-79.758516
1-queen-west-1-queen-west-to-bramalea-terminal-bra,Downtown Terminal Route 1/1A WB /561 Stop,52,86,-8879178.9932,5417115.1643,2086.0,00045510,3548.0,Downtown Terminal Route 1/1A WB /561 Stop,,,,0.0,place_4CRN,,1.0,43.686892,-79.763022
1-queen-west-1-queen-west-to-bramalea-terminal-bra,George St opp Diplock Lane,53,86,-8879011.9026,5416889.4878,576.0,00008340,1654.0,George St opp Diplock Lane,,,,0.0,,,1.0,43.685426,-79.761521
1-queen-west-1-queen-west-to-bramalea-terminal-bra,Queen St W at Mill St N,54,86,-8879117.8788,5416622.8702,577.0,00008350,1655.0,Queen St W at Mill St N,,,,0.0,,,1.0,43.683694,-79.762473
1-queen-west-1-queen-west-to-bramalea-terminal-bra,Queen St W at Park St,55,86,-8879238.3265,5416472.9397,578.0,00008360,1656.0,Queen St W at Park St,,,,0.0,,,1.0,43.68272,-79.763555
1-queen-west-1-queen-west-to-bramalea-terminal-bra,McMurchy - Zum Queen West Station Stop WB,56,86,-8879514.9554,5416126.9082,579.0,00008370,1657.0,McMurchy - Zum Queen West Station Stop WB,,,,0.0,,,1.0,43.680472,-79.76604
1-queen-west-1-queen-west-to-bramalea-terminal-bra,Queen St W at Haggert Ave N,57,86,-8879667.6857,5415930.9628,580.0,00008380,1658.0,Queen St W at Haggert Ave N,,,,0.0,,,1.0,43.679199,-79.767412
1-queen-west-1-queen-west-to-bramalea-terminal-bra,Queen St W at Mercer Dr,58,86,-8879822.8651,5415736.4069,581.0,00008390,1659.0,Queen St W at Mercer Dr,,,,0.0,,,1.0,43.677935,-79.768806
1-queen-west-1-queen-west-to-bramalea-terminal-bra,McLaughlin Rd S at FCCC Entrance,59,86,-8879793.5881,5415178.7743,1058.0,00014560,2235.0,McLaughlin Rd S at FCCC Entrance,,,,0.0,,,1.0,43.674312,-79.768543
1-queen-west-1-queen-west-to-bramalea-terminal-bra,Flower City Community Campus Route 1/1A/3A/57 Stop,60,86,-8879937.5242,5414725.6746,1006.0,00013930,2170.0,Flower City Community Campus Route 1/1A/3A/57 Stop,,,,0.0,,,1.0,43.671368,-79.769836
1-queen-west-1-queen-west-to-bramalea-terminal-bra,McLaughlin Rd S n/of Bufford Dr,61,86,-8879797.039,5415237.4142,1007.0,00013935,2171.0,McLaughlin Rd S n/of Bufford Dr,,,,0.0,,,1.0,43.674693,-79.768574
1-queen-west-1-queen-west-to-bramalea-terminal-bra,McLaughlin - Zum Queen West Station Stop WB,62,86,-8880100.6072,5415398.8681,582.0,00008400,1660.0,McLaughlin - Zum Queen West Station Stop WB,,,,0.0,,,1.0,43.675742,-79.771301
1-queen-west-1-queen-west-to-bramalea-terminal-bra,Queen St W e/of Kimbark Dr,63,86,-8880444.1392,5414969.767,583.0,00008410,1661.0,Queen St W e/of Kimbark Dr,,,,0.0,,,1.0,43.672954,-79.774387
1-queen-west-1-queen-west-to-bramalea-terminal-bra,Queen St W e/of Major William Sharpe,64,86,-8880738.8019,5414619.0208,2220.0,00091350,3528.0,Queen St W e/of Major William Sharpe,,,,0.0,,,1.0,43.670675,-79.777034
1-queen-west-1-queen-west-to-bramalea-terminal-bra,Major William Sharpe Dr n/of Queen St,65,86,-8880819.0632,5414636.7194,584.0,00008420,1662.0,Major William Sharpe Dr n/of Queen St,,,,0.0,,,1.0,43.67079,-79.777755
1-queen-west-1-queen-west-to-bramalea-terminal-bra,Major William Sharpe Dr n/of Burgby Ave,66,86,-8881401.7094,5414751.0685,585.0,00008430,1663.0,Major William Sharpe Dr n/of Burgby Ave,,,,0.0,,,1.0,43.671533,-79.782989
1-queen-west-1-queen-west-to-bramalea-terminal-bra,Major William Sharpe Dr opp Candy Cres (S),67,86,-8881648.3934,5414956.531,586.0,00008440,1664.0,Major William Sharpe Dr opp Candy Cres (S),,,,0.0,,,1.0,43.672868,-79.785205
1-queen-west-1-queen-west-to-bramalea-terminal-bra,Flowertown Ave w/of Major William Sharpe Dr,68,86,-8881990.5896,5415379.0133,587.0,00008450,1665.0,Flowertown Ave w/of Major William Sharpe Dr,,,,0.0,,,0.0,43.675613,-79.788279
1-queen-west-1-queen-west-to-bramalea-terminal-bra,Flowertown Ave at Chinguacousy Rd,69,86,-8882298.054,5415119.5192,588.0,00008460,1666.0,Flowertown Ave at Chinguacousy Rd,,,,0.0,,,1.0,43.673927,-79.791041
1-queen-west-1-queen-west-to-bramalea-terminal-bra,Major William Sharpe Dr e/of Chinguacousy Rd,70,86,-8882692.3476,5415560.7867,532.0,00007455,1593.0,Major William Sharpe Dr e/of Chinguacousy Rd,,,,0.0,,,1.0,43.676794,-79.794583
1-queen-west-1-queen-west-to-bramalea-terminal-bra,Queen St W at Sobey's Entrance (WB),71,86,-8881050.4965,5414241.6642,1146.0,00015630,2349.0,Queen St W at Sobey's Entrance (WB),,,,0.0,,,1.0,43.668223,-79.779834
1-queen-west-1-queen-west-to-bramalea-terminal-bra,Chinguacousy - Zum Queen West Station Stop WB,72,86,-8881306.5313,5413926.3402,2234.0,00092000,3774.0,Chinguacousy - Zum Queen West Station Stop WB,,,,0.0,,,1.0,43.666174,-79.782134
1-queen-west-1-queen-west-to-bramalea-terminal-bra,James Potter - Zum Queen West Station Stop WB,73,86,-8881705.2777,5413416.8275,2221.0,00091360,3804.0,James Potter - Zum Queen West Station Stop WB,,,,0.0,,,1.0,43.662863,-79.785716
1-queen-west-1-queen-west-to-bramalea-terminal-bra,Queen St W opp Angelgate Rd,74,86,-8881941.8316,5413125.3823,2222.0,00091365,3805.0,Queen St W opp Angelgate Rd,,,,0.0,,,1.0,43.660969,-79.787841
1-queen-west-1-queen-west-to-bramalea-terminal-bra,Creditview - Zum Queen West Station Stop WB,75,86,-8882497.4272,5412434.0445,2223.0,00091370,3806.0,Creditview - Zum Queen West Station Stop WB,,,,0.0,,,1.0,43.656476,-79.792832
1-queen-west-1-queen-west-to-bramalea-terminal-bra,Queen St opp Links Lane,76,86,-8882767.7109,5412092.4722,2224.0,00091375,3807.0,Queen St opp Links Lane,,,,0.0,,,1.0,43.654256,-79.79526
1-queen-west-1-queen-west-to-bramalea-terminal-bra,Queen St w/of Elbern Markell Dr,77,86,-8883061.9283,5411704.4492,2225.0,00091380,3808.0,Queen St w/of Elbern Markell Dr,,,,0.0,,,1.0,43.651734,-79.797903
1-queen-west-1-queen-west-to-bramalea-terminal-bra,Mississauga Rd - Zum Queen West Station Stop WB,78,86,-8883496.0743,5411175.0594,2530.0,16090503,2809.0,Mississauga Rd - Zum Queen West Station Stop WB,,,,0.0,,,1.0,43.648293,-79.801803
1-queen-west-1-queen-west-to-bramalea-terminal-bra,Mississauga Rd n/of Adamsville Rd,79,86,-8884173.2308,5411627.3696,2455.0,15090825,1268.0,Mississauga Rd n/of Adamsville Rd,,,,0.0,,,1.0,43.651233,-79.807886
1-queen-west-1-queen-west-to-bramalea-terminal-bra,Mississauga Rd n/of Beacon Hill Dr,80,86,-8884647.7858,5412107.8581,2150.0,00049040,3644.0,Mississauga Rd n/of Beacon Hill Dr,,,,0.0,,,1.0,43.654356,-79.812149
1-queen-west-1-queen-west-to-bramalea-terminal-bra,Mississauga Rd at Credit Ridge Commons,81,86,-8884886.4548,5412335.5719,2151.0,00049050,3645.0,Mississauga Rd at Credit Ridge Commons,,,,0.0,,,1.0,43.655836,-79.814293
1-queen-west-1-queen-west-to-bramalea-terminal-bra,Williams - Zum Queen West Station Stop NB,82,86,-8885299.8954,5412764.5507,2456.0,15090826,1269.0,Williams - Zum Queen West Station Stop NB,,,,0.0,,,1.0,43.658624,-79.818007
1-queen-west-1-queen-west-to-bramalea-terminal-bra,Mississauga Rd s/of Royal West Dr,83,86,-8885818.4216,5413308.6501,2737.0,19090339,4257.0,Mississauga Rd s/of Royal West Dr,,,,0.0,,,1.0,43.66216,-79.822665
1-queen-west-1-queen-west-to-bramalea-terminal-bra,Bovaird - Zum Queen West Station Stop EB,84,86,-8886506.5987,5414135.3239,2531.0,16090504,2810.0,Bovaird - Zum Queen West Station Stop EB,,,,0.0,,,1.0,43.667532,-79.828847
1-queen-west-1-queen-west-to-bramalea-terminal-bra,Bovaird Dr w/of Elbern Markell Dr,85,86,-8886345.0741,5414328.6149,2703.0,19030401,4202.0,Bovaird Dr w/of Elbern Markell Dr,,,,0.0,,,0.0,43.668788,-79.827396
1-queen-west-1-queen-west-to-bramalea-terminal-bra,Mount Pleasant GO Station - Route 1 / 561 Stop,86,86,-8885836.4553,5415249.881,2375.0,15090711,2315.0,Mount Pleasant GO Station - Route 1 / 561 Stop,,,,0.0,place_MPGO,,1.0,43.674774,-79.822827
2-main-north-heart-lake-terminal-route-2-stop,HWY 407 Park and Ride,1,38,-8873452.8299,5411772.6059,1745.0,00026792,6131.0,HWY 407 Park and Ride,,,,0.0,place_MNGO,,1.0,43.652177,-79.711583
2-main-north-heart-lake-terminal-route-2-stop,HWY 407 Park and Ride,1,38,-8873453.9431,5411759.3745,2839.0,place_MNGO,,HWY 407 Park and Ride,,,,1.0,,,1.0,43.652091,-79.711593
2-main-north-heart-lake-terminal-route-2-stop,County Court South - Zum Main Station Stop NB,2,38,-8874794.675,5412841.0243,1744.0,00026790,3165.0,County Court South - Zum Main Station Stop NB,,,,0.0,,,1.0,43.659121,-79.723637
2-main-north-heart-lake-terminal-route-2-stop,County Court North - Zum Main Station Stop NB,3,38,-8875254.8698,5413317.2673,1746.0,00026800,3167.0,County Court North - Zum Main Station Stop NB,,,,0.0,,,1.0,43.662216,-79.727771
2-main-north-heart-lake-terminal-route-2-stop,Brampton Gateway Terminal Route 2 NB Stop,4,38,-8875946.9431,5413942.6524,1802.0,00030111,4208.0,Brampton Gateway Terminal Route 2 NB Stop,,,,0.0,place_GATE,,1.0,43.66628,-79.733988
2-main-north-heart-lake-terminal-route-2-stop,Main St S at Bartley Bull Pky,5,38,-8876116.0374,5414196.8811,634.0,00009060,1721.0,Main St S at Bartley Bull Pky,,,,0.0,,,1.0,43.667932,-79.735507
2-main-north-heart-lake-terminal-route-2-stop,Main St S at Charolais Blvd,6,38,-8876372.7401,5414452.0402,635.0,00009065,1722.0,Main St S at Charolais Blvd,,,,0.0,,,1.0,43.66959,-79.737813
2-main-north-heart-lake-terminal-route-2-stop,Main St S at Charolais Blvd,6,38,-8876489.1803,5414514.8307,702.0,00009750,1796.0,Main St S at Charolais Blvd,,,,0.0,,,1.0,43.669998,-79.738859
2-main-north-heart-lake-terminal-route-2-stop,Main St S n/of Peel Village Pky,7,38,-8876701.1326,5414782.3108,636.0,00009070,1723.0,Main St S n/of Peel Village Pky,,,,0.0,,,1.0,43.671736,-79.740763
2-main-north-heart-lake-terminal-route-2-stop,Main St S at Elgin Dr,8,38,-8876966.9636,5415053.6464,637.0,00009080,1724.0,Main St S at Elgin Dr,,,,0.0,,,1.0,43.673499,-79.743151
2-main-north-heart-lake-terminal-route-2-stop,Main St S at Elgin Dr,8,38,-8877035.9817,5415069.8067,700.0,00009730,1794.0,Main St S at Elgin Dr,,,,0.0,,,1.0,43.673604,-79.743771
2-main-north-heart-lake-terminal-route-2-stop,Nanwood - Zum Main Station Stop NB,9,38,-8877513.9875,5415633.2815,638.0,00009090,1725.0,Nanwood - Zum Main Station Stop NB,,,,0.0,,,1.0,43.677265,-79.748065
2-main-north-heart-lake-terminal-route-2-stop,Main St S btwn Nanwood Dr &amp; Harold St,10,38,,,,,,,,,,,,,,,
2-main-north-heart-lake-terminal-route-2-stop,Main St S at Clarence St,11,38,-8877961.0466,5416079.0374,640.0,00009110,1727.0,Main St S at Clarence St,,,,0.0,,,1.0,43.680161,-79.752081
2-main-north-heart-lake-terminal-route-2-stop,Main St S at Clarence St,11,38,-8878023.7195,5416114.4402,697.0,00009700,1790.0,Main St S at Clarence St,,,,0.0,,,1.0,43.680391,-79.752644
2-main-north-heart-lake-terminal-route-2-stop,Main St S n/of Guest St,12,38,-8878137.1541,5416260.6706,641.0,00009120,1728.0,Main St S n/of Guest St,,,,0.0,,,1.0,43.681341,-79.753663
2-main-north-heart-lake-terminal-route-2-stop,Main St S n/of Woodbrook Dr (St. Mary Church),13,38,-8878420.4622,5416555.1395,642.0,00009130,1729.0,Main St S n/of Woodbrook Dr (St. Mary Church),,,,0.0,,,1.0,43.683254,-79.756208
2-main-north-heart-lake-terminal-route-2-stop,Wellington - Zum Main Station Stop NB,14,38,-8878592.1168,5416731.0865,643.0,00009140,1730.0,Wellington - Zum Main Station Stop NB,,,,0.0,,,1.0,43.684397,-79.75775
2-main-north-heart-lake-terminal-route-2-stop,Main St N n/of Queen St E,15,38,-8878855.1648,5416995.0902,644.0,00009150,1732.0,Main St N n/of Queen St E,,,,0.0,,,1.0,43.686112,-79.760113
2-main-north-heart-lake-terminal-route-2-stop,Theatre Lane - Zum Main Station Stop NB,16,38,-8879044.6305,5417192.1357,646.0,00009160,1733.0,Theatre Lane - Zum Main Station Stop NB,,,,0.0,,,1.0,43.687392,-79.761815
2-main-north-heart-lake-terminal-route-2-stop,Main St N at Church St,17,38,-8879145.3747,5417292.3535,647.0,00009170,1734.0,Main St N at Church St,,,,0.0,,,1.0,43.688043,-79.76272
2-main-north-heart-lake-terminal-route-2-stop,Main St N at Church St,17,38,-8879210.6079,5417324.9899,692.0,00009640,1784.0,Main St N at Church St,,,,0.0,,,1.0,43.688255,-79.763306
2-main-north-heart-lake-terminal-route-2-stop,Main St N at Alexander St,18,38,-8879297.7711,5417451.996,648.0,00009180,1735.0,Main St N at Alexander St,,,,0.0,,,1.0,43.68908,-79.764089
2-main-north-heart-lake-terminal-route-2-stop,Main St at Sproule Dr,19,38,-8879595.8847,5417757.7415,649.0,00009190,1736.0,Main St at Sproule Dr,,,,0.0,,,1.0,43.691066,-79.766767
2-main-north-heart-lake-terminal-route-2-stop,Vodden - Zum Main Station Stop NB,20,38,-8879848.9139,5418025.3155,650.0,00009195,1737.0,Vodden - Zum Main Station Stop NB,,,,0.0,,,1.0,43.692804,-79.76904
2-main-north-heart-lake-terminal-route-2-stop,Main St N at English St,21,38,-8880107.843,5418292.1275,651.0,00009210,1739.0,Main St N at English St,,,,0.0,,,1.0,43.694537,-79.771366
2-main-north-heart-lake-terminal-route-2-stop,Main St N at English St,21,38,-8880174.4121,5418320.7645,688.0,00009600,1780.0,Main St N at English St,,,,0.0,,,1.0,43.694723,-79.771964
2-main-north-heart-lake-terminal-route-2-stop,Main St N at Layham Gate,22,38,-8880357.1987,5418549.5553,652.0,00009220,1740.0,Main St N at Layham Gate,,,,0.0,,,1.0,43.696209,-79.773606
2-main-north-heart-lake-terminal-route-2-stop,Main St N btwn Layham Gate &amp; Williams Pky E,23,38,,,,,,,,,,,,,,,
2-main-north-heart-lake-terminal-route-2-stop,Williams - Zum Main Station Stop NB,24,38,-8880703.6249,5418912.7686,653.0,00009230,1741.0,Williams - Zum Main Station Stop NB,,,,0.0,,,1.0,43.698568,-79.776718
2-main-north-heart-lake-terminal-route-2-stop,Main St N at Brickyard Way,25,38,-8881043.1494,5419253.3613,655.0,00009250,1744.0,Main St N at Brickyard Way,,,,0.0,,,1.0,43.70078,-79.779768
2-main-north-heart-lake-terminal-route-2-stop,Main St N btwn Brickyard Way &amp; Quarry Edge Dr,26,38,,,,,,,,,,,,,,,
2-main-north-heart-lake-terminal-route-2-stop,Main St N at Quarry Edge Dr,27,38,-8881441.5618,5419651.0947,657.0,00009270,1747.0,Main St N at Quarry Edge Dr,,,,0.0,,,1.0,43.703363,-79.783347
2-main-north-heart-lake-terminal-route-2-stop,Main St s/of Bovaird Dr,28,38,-8881702.7173,5419929.0409,658.0,00009277,3668.0,Main St s/of Bovaird Dr,,,,0.0,,,1.0,43.705168,-79.785693
2-main-north-heart-lake-terminal-route-2-stop,Bovaird - Zum Main Station Stop NB,29,38,-8881911.7754,5420147.0921,659.0,00009280,1748.0,Bovaird - Zum Main Station Stop NB,,,,0.0,,,1.0,43.706584,-79.787571
2-main-north-heart-lake-terminal-route-2-stop,Hurontario St at Wexford Rd,30,38,-8882392.8982,5420632.4901,660.0,00009300,1750.0,Hurontario St at Wexford Rd,,,,0.0,,,1.0,43.709736,-79.791893
2-main-north-heart-lake-terminal-route-2-stop,Hurontario St at Tremblay St,31,38,-8882802.5539,5421050.92,661.0,00009310,1751.0,Hurontario St at Tremblay St,,,,0.0,,,1.0,43.712453,-79.795573
2-main-north-heart-lake-terminal-route-2-stop,Hurontario St opp Fisherman Dr,32,38,-8883181.0402,5421447.1907,662.0,00009320,1752.0,Hurontario St opp Fisherman Dr,,,,0.0,,,1.0,43.715026,-79.798973
2-main-north-heart-lake-terminal-route-2-stop,Sandalwood Pkwy e/of Main St,33,38,-8883552.736,5421954.5283,663.0,00009330,1753.0,Sandalwood Pkwy e/of Main St,,,,0.0,,,1.0,43.71832,-79.802312
2-main-north-heart-lake-terminal-route-2-stop,Sandalwood Pky E btwn Hurontario St and Sunforest,34,38,-8883437.409,5422097.1546,664.0,00009340,1754.0,Sandalwood Pky E btwn Hurontario St and Sunforest,,,,0.0,,,1.0,43.719246,-79.801276
2-main-north-heart-lake-terminal-route-2-stop,Sandalwood Pky E at Sunforest Dr,35,38,-8883280.5598,5422303.3968,665.0,00009350,1755.0,Sandalwood Pky E at Sunforest Dr,,,,0.0,,,1.0,43.720585,-79.799867
2-main-north-heart-lake-terminal-route-2-stop,Sandalwood Pky E at 95 Sandalwood (Firestation),36,38,-8883045.787,5422611.4595,666.0,00009360,1756.0,Sandalwood Pky E at 95 Sandalwood (Firestation),,,,0.0,,,1.0,43.722585,-79.797758
2-main-north-heart-lake-terminal-route-2-stop,Conestoga Dr opp Loafers Lake Lane,37,38,-8883068.2735,5423155.5232,667.0,00009380,1758.0,Conestoga Dr opp Loafers Lake Lane,,,,0.0,,,1.0,43.726117,-79.79796
2-main-north-heart-lake-terminal-route-2-stop,Heart Lake Terminal Route 2 Stop,38,38,-8883073.9508,5423432.9588,668.0,00009390,1759.0,Heart Lake Terminal Route 2 Stop,,,,0.0,place_HTLK,,1.0,43.727918,-79.798011
2-main-south-hwy-407-park-and-ride,Heart Lake Terminal Route 2 Stop,1,54,-8883073.9508,5423432.9588,668.0,00009390,1759.0,Heart Lake Terminal Route 2 Stop,,,,0.0,place_HTLK,,1.0,43.727918,-79.798011
2-main-south-hwy-407-park-and-ride,Conestoga Dr opp Mondragon Circle,2,54,-8882946.824,5423698.5407,669.0,00009415,1760.0,Conestoga Dr opp Mondragon Circle,,,,0.0,,,1.0,43.729642,-79.796869
2-main-south-hwy-407-park-and-ride,Sandalwood Pky E w/of Kennedy Rd N,3,54,-8882662.7366,5423389.5175,670.0,00009420,1761.0,Sandalwood Pky E w/of Kennedy Rd N,,,,0.0,,,1.0,43.727636,-79.794317
2-main-south-hwy-407-park-and-ride,Sandalwood Pky E w/of Conestoga Dr,4,54,-8882922.8903,5423014.575,671.0,00009430,1762.0,Sandalwood Pky E w/of Conestoga Dr,,,,0.0,,,1.0,43.725202,-79.796654
2-main-south-hwy-407-park-and-ride,Sandalwood Pky E opp 95 Sandalwood Pky E (Firestat,5,54,-8883048.6813,5422670.7627,672.0,00009440,1763.0,Sandalwood Pky E opp 95 Sandalwood Pky E (Firestat,,,,0.0,,,1.0,43.72297,-79.797784
2-main-south-hwy-407-park-and-ride,Sandalwood Pky E at Braidwood Lake Rd,6,54,-8883269.5392,5422370.8617,673.0,00009450,1764.0,Sandalwood Pky E at Braidwood Lake Rd,,,,0.0,,,1.0,43.721023,-79.799768
2-main-south-hwy-407-park-and-ride,Sandalwood Pky E w/of Braidwood Lake Rd,7,54,-8883396.1094,5422209.4398,674.0,00009460,1765.0,Sandalwood Pky E w/of Braidwood Lake Rd,,,,0.0,,,1.0,43.719975,-79.800905
2-main-south-hwy-407-park-and-ride,Sandalwood - Zum Main Station Stop SB,8,54,-8883593.7015,5421798.6584,676.0,00009475,1767.0,Sandalwood - Zum Main Station Stop SB,,,,0.0,,,1.0,43.717308,-79.80268
2-main-south-hwy-407-park-and-ride,Hurontario St at Fisherman Dr,9,54,-8883262.1921,5421460.744,677.0,00009480,1768.0,Hurontario St at Fisherman Dr,,,,0.0,,,1.0,43.715114,-79.799702
2-main-south-hwy-407-park-and-ride,Hurontario St n/of Tremblay St,10,54,-8882875.1342,5421068.1689,678.0,00009490,1769.0,Hurontario St n/of Tremblay St,,,,0.0,,,1.0,43.712565,-79.796225
2-main-south-hwy-407-park-and-ride,Hurontario St s/of Wexford Rd,11,54,-8882347.2572,5420529.9261,679.0,00009500,1770.0,Hurontario St s/of Wexford Rd,,,,0.0,,,1.0,43.70907,-79.791483
2-main-south-hwy-407-park-and-ride,Hurontario St at 10086 Hurontario St (Stitches Out,12,54,-8882107.6977,5420278.1409,680.0,00009510,1771.0,Hurontario St at 10086 Hurontario St (Stitches Out,,,,0.0,,,0.0,43.707435,-79.789331
2-main-south-hwy-407-park-and-ride,Hurontario St at Bovaird Dr W,13,54,-8881939.0486,5420101.2024,681.0,00009520,1772.0,Hurontario St at Bovaird Dr W,,,,0.0,,,1.0,43.706286,-79.787816
2-main-south-hwy-407-park-and-ride,Bovaird - Zum Main Station Stop SB,14,54,-8881736.1132,5419897.0112,682.0,00009530,1773.0,Bovaird - Zum Main Station Stop SB,,,,0.0,,,1.0,43.70496,-79.785993
2-main-south-hwy-407-park-and-ride,Main St N at Gillingham Dr,15,54,-8881516.3685,5419676.6562,683.0,00009540,1774.0,Main St N at Gillingham Dr,,,,0.0,,,1.0,43.703529,-79.784019
2-main-south-hwy-407-park-and-ride,Main St N btwn Gillingham Dr &amp; Brickyard Way,16,54,,,,,,,,,,,,,,,
2-main-south-hwy-407-park-and-ride,Main St s/of Brickyard Way,17,54,-8880966.2276,5419125.5606,685.0,00009560,1776.0,Main St s/of Brickyard Way,,,,0.0,,,1.0,43.69995,-79.779077
2-main-south-hwy-407-park-and-ride,Williams - Zum Main Station Stop SB,18,54,-8880724.4417,5418869.5025,686.0,00009580,1778.0,Williams - Zum Main Station Stop SB,,,,0.0,,,1.0,43.698287,-79.776905
2-main-south-hwy-407-park-and-ride,Main St N at Archibald St,19,54,-8880424.547,5418577.1153,687.0,00009590,1779.0,Main St N at Archibald St,,,,0.0,,,1.0,43.696388,-79.774211
2-main-south-hwy-407-park-and-ride,Main St N at English St,20,54,-8880107.843,5418292.1275,651.0,00009210,1739.0,Main St N at English St,,,,0.0,,,1.0,43.694537,-79.771366
2-main-south-hwy-407-park-and-ride,Main St N at English St,20,54,-8880174.4121,5418320.7645,688.0,00009600,1780.0,Main St N at English St,,,,0.0,,,1.0,43.694723,-79.771964
2-main-south-hwy-407-park-and-ride,Vodden - Zum Main Station Stop SB,21,54,-8879864.7212,5417997.6032,689.0,00009610,1781.0,Vodden - Zum Main Station Stop SB,,,,0.0,,,1.0,43.692624,-79.769182
2-main-south-hwy-407-park-and-ride,Main St N at Rosedale Ave,22,54,-8879637.8521,5417770.9814,690.0,00009620,1782.0,Main St N at Rosedale Ave,,,,0.0,,,1.0,43.691152,-79.767144
2-main-south-hwy-407-park-and-ride,Main St N s/of David St,23,54,-8879465.9748,5417593.937,691.0,00009630,1783.0,Main St N s/of David St,,,,0.0,,,1.0,43.690002,-79.7656
2-main-south-hwy-407-park-and-ride,Main St N at Market St,24,54,-8879347.1969,5417472.779,964.0,00012840,2100.0,Main St N at Market St,,,,0.0,,,1.0,43.689215,-79.764533
2-main-south-hwy-407-park-and-ride,Main St N at Church St,25,54,-8879145.3747,5417292.3535,647.0,00009170,1734.0,Main St N at Church St,,,,0.0,,,1.0,43.688043,-79.76272
2-main-south-hwy-407-park-and-ride,Main St N at Church St,25,54,-8879210.6079,5417324.9899,692.0,00009640,1784.0,Main St N at Church St,,,,0.0,,,1.0,43.688255,-79.763306
2-main-south-hwy-407-park-and-ride,Nelson - Zum Main Station Stop SB,26,54,-8879064.6681,5417180.2821,693.0,00009650,1785.0,Nelson - Zum Main Station Stop SB,,,,0.0,,,1.0,43.687315,-79.761995
2-main-south-hwy-407-park-and-ride,Main St N at Queen St W,27,54,-8878870.3042,5416979.3883,694.0,00009660,1786.0,Main St N at Queen St W,,,,0.0,,,1.0,43.68601,-79.760249
2-main-south-hwy-407-park-and-ride,Wellington - Zum Main Station Stop SB,28,54,-8878690.9685,5416796.6634,695.0,00009670,1787.0,Wellington - Zum Main Station Stop SB,,,,0.0,,,1.0,43.684823,-79.758638
2-main-south-hwy-407-park-and-ride,Main St S opp Woodbrook Dr,29,54,-8878376.157,5416474.7869,696.0,00009680,1788.0,Main St S opp Woodbrook Dr,,,,0.0,,,1.0,43.682732,-79.75581
2-main-south-hwy-407-park-and-ride,Main St S at Clarence St,30,54,-8877961.0466,5416079.0374,640.0,00009110,1727.0,Main St S at Clarence St,,,,0.0,,,1.0,43.680161,-79.752081
2-main-south-hwy-407-park-and-ride,Main St S at Clarence St,30,54,-8878023.7195,5416114.4402,697.0,00009700,1790.0,Main St S at Clarence St,,,,0.0,,,1.0,43.680391,-79.752644
2-main-south-hwy-407-park-and-ride,Main St S btwn Harold St &amp; Nanwood Dr,31,54,,,,,,,,,,,,,,,
2-main-south-hwy-407-park-and-ride,Nanwood - Zum Main Station Stop SB,32,54,-8877428.6055,5415485.0602,699.0,00009720,1793.0,Nanwood - Zum Main Station Stop SB,,,,0.0,,,1.0,43.676302,-79.747298
